<?xml version="1.0" encoding="UTF-8"?>
<localidad>
<nombre>Salas</nombre>
<IdProvincia>6</IdProvincia>
<ID>1</ID>
<Latitud>43.40976</Latitud>
<Longitud>-6.260448</Longitud>
</localidad>
<localidad>
<nombre>Salteras</nombre>
<IdProvincia>43</IdProvincia>
<ID>2</ID>
<Latitud>37.41824</Latitud>
<Longitud>-6.111633</Longitud>
</localidad>
<localidad>
<nombre>San Bartolomé de la Torre</nombre>
<IdProvincia>23</IdProvincia>
<ID>3</ID>
<Latitud>37.44596</Latitud>
<Longitud>-7.106683</Longitud>
</localidad>
<localidad>
<nombre>San José del Valle</nombre>
<IdProvincia>12</IdProvincia>
<ID>4</ID>
<Latitud>36.60554</Latitud>
<Longitud>-5.798952</Longitud>
</localidad>
<localidad>
<nombre>San Juan del Monte</nombre>
<IdProvincia>10</IdProvincia>
<ID>5</ID>
<Latitud>41.6844</Latitud>
<Longitud>-3.521135</Longitud>
</localidad>
<localidad>
<nombre>San Juan del Puerto</nombre>
<IdProvincia>23</IdProvincia>
<ID>6</ID>
<Latitud>37.31416</Latitud>
<Longitud>-6.840784</Longitud>
</localidad>
<localidad>
<nombre>San Lorenzo de El Escorial</nombre>
<IdProvincia>32</IdProvincia>
<ID>7</ID>
<Latitud>40.59167</Latitud>
<Longitud>-4.149123</Longitud>
</localidad>
<localidad>
<nombre>San Martín del Rey Aurelio</nombre>
<IdProvincia>6</IdProvincia>
<ID>8</ID>
<Latitud>43.27671</Latitud>
<Longitud>-5.607564</Longitud>
</localidad>
<localidad>
<nombre>San Mateo de Gállego</nombre>
<IdProvincia>52</IdProvincia>
<ID>9</ID>
<Latitud>41.8306</Latitud>
<Longitud>-0.7690734</Longitud>
</localidad>
<localidad>
<nombre>San Roque</nombre>
<IdProvincia>12</IdProvincia>
<ID>10</ID>
<Latitud>36.20975</Latitud>
<Longitud>-5.384572</Longitud>
</localidad>
<localidad>
<nombre>San Tirso de Abres</nombre>
<IdProvincia>6</IdProvincia>
<ID>11</ID>
<Latitud>43.409</Latitud>
<Longitud>-7.143</Longitud>
</localidad>
<localidad>
<nombre>Sanlúcar la Mayor</nombre>
<IdProvincia>43</IdProvincia>
<ID>12</ID>
<Latitud>37.38578</Latitud>
<Longitud>-6.201977</Longitud>
</localidad>
<localidad>
<nombre>Sant Feliu de Guíxols</nombre>
<IdProvincia>19</IdProvincia>
<ID>13</ID>
<Latitud>41.78058</Latitud>
<Longitud>3.030733</Longitud>
</localidad>
<localidad>
<nombre>Sant Quintí de Mediona</nombre>
<IdProvincia>9</IdProvincia>
<ID>14</ID>
<Latitud>41.46383</Latitud>
<Longitud>1.666462</Longitud>
</localidad>
<localidad>
<nombre>Santa Bàrbara</nombre>
<IdProvincia>45</IdProvincia>
<ID>15</ID>
<Latitud>40.71442</Latitud>
<Longitud>0.4922784</Longitud>
</localidad>
<localidad>
<nombre>Santa Eulalia de Gállego</nombre>
<IdProvincia>52</IdProvincia>
<ID>16</ID>
<Latitud>42.28679</Latitud>
<Longitud>-0.7603972</Longitud>
</localidad>
<localidad>
<nombre>Santa Olalla</nombre>
<IdProvincia>47</IdProvincia>
<ID>17</ID>
<Latitud>40.02426</Latitud>
<Longitud>-4.428266</Longitud>
</localidad>
<localidad>
<nombre>Santaella</nombre>
<IdProvincia>17</IdProvincia>
<ID>18</ID>
<Latitud>37.56627</Latitud>
<Longitud>-4.845094</Longitud>
</localidad>
<localidad>
<nombre>Santander</nombre>
<IdProvincia>13</IdProvincia>
<ID>19</ID>
<Latitud>43.46096</Latitud>
<Longitud>-3.807934</Longitud>
</localidad>
<localidad>
<nombre>Santed</nombre>
<IdProvincia>52</IdProvincia>
<ID>20</ID>
<Latitud>41.03228</Latitud>
<Longitud>-1.507787</Longitud>
</localidad>
<localidad>
<nombre>Sarrión</nombre>
<IdProvincia>46</IdProvincia>
<ID>21</ID>
<Latitud>40.14188</Latitud>
<Longitud>-0.815191</Longitud>
</localidad>
<localidad>
<nombre>Sástago</nombre>
<IdProvincia>52</IdProvincia>
<ID>22</ID>
<Latitud>41.3213</Latitud>
<Longitud>-0.3509796</Longitud>
</localidad>
<localidad>
<nombre>Segovia</nombre>
<IdProvincia>42</IdProvincia>
<ID>23</ID>
<Latitud>40.94943</Latitud>
<Longitud>-4.119209</Longitud>
</localidad>
<localidad>
<nombre>Sena</nombre>
<IdProvincia>24</IdProvincia>
<ID>24</ID>
<Latitud>41.71468</Latitud>
<Longitud>-0.0437513</Longitud>
</localidad>
<localidad>
<nombre>Seròs</nombre>
<IdProvincia>30</IdProvincia>
<ID>25</ID>
<Latitud>41.46283</Latitud>
<Longitud>0.4108175</Longitud>
</localidad>
<localidad>
<nombre>Sevilla</nombre>
<IdProvincia>43</IdProvincia>
<ID>26</ID>
<Latitud>37.38264</Latitud>
<Longitud>-5.996295</Longitud>
</localidad>
<localidad>
<nombre>Siero</nombre>
<IdProvincia>6</IdProvincia>
<ID>27</ID>
<Latitud>43.383</Latitud>
<Longitud>-5.65</Longitud>
</localidad>
<localidad>
<nombre>Siétamo</nombre>
<IdProvincia>24</IdProvincia>
<ID>28</ID>
<Latitud>42.12341</Latitud>
<Longitud>-0.2796467</Longitud>
</localidad>
<localidad>
<nombre>Sigüenza</nombre>
<IdProvincia>21</IdProvincia>
<ID>29</ID>
<Latitud>41.0696</Latitud>
<Longitud>-2.642236</Longitud>
</localidad>
<localidad>
<nombre>Sigüés</nombre>
<IdProvincia>52</IdProvincia>
<ID>30</ID>
<Latitud>42.63047</Latitud>
<Longitud>-1.012736</Longitud>
</localidad>
<localidad>
<nombre>Singra</nombre>
<IdProvincia>46</IdProvincia>
<ID>31</ID>
<Latitud>40.65592</Latitud>
<Longitud>-1.311811</Longitud>
</localidad>
<localidad>
<nombre>Soleràs, El</nombre>
<IdProvincia>30</IdProvincia>
<ID>32</ID>
<Latitud>41.41253</Latitud>
<Longitud>0.684953</Longitud>
</localidad>
<localidad>
<nombre>Somiedo</nombre>
<IdProvincia>6</IdProvincia>
<ID>33</ID>
<Latitud>43.1</Latitud>
<Longitud>-6.25</Longitud>
</localidad>
<localidad>
<nombre>Soto del Barco</nombre>
<IdProvincia>6</IdProvincia>
<ID>34</ID>
<Latitud>43.53319</Latitud>
<Longitud>-6.069166</Longitud>
</localidad>
<localidad>
<nombre>Sotonera, La</nombre>
<IdProvincia>24</IdProvincia>
<ID>35</ID>
<Latitud>42.25468</Latitud>
<Longitud>-0.5446912</Longitud>
</localidad>
<localidad>
<nombre>Talavera de la Reina</nombre>
<IdProvincia>47</IdProvincia>
<ID>36</ID>
<Latitud>39.9598</Latitud>
<Longitud>-4.834432</Longitud>
</localidad>
<localidad>
<nombre>Tamarite de Litera</nombre>
<IdProvincia>24</IdProvincia>
<ID>37</ID>
<Latitud>41.86698</Latitud>
<Longitud>0.4220118</Longitud>
</localidad>
<localidad>
<nombre>Tarancón</nombre>
<IdProvincia>18</IdProvincia>
<ID>38</ID>
<Latitud>40.01054</Latitud>
<Longitud>-3.006447</Longitud>
</localidad>
<localidad>
<nombre>Tardienta</nombre>
<IdProvincia>24</IdProvincia>
<ID>39</ID>
<Latitud>41.97935</Latitud>
<Longitud>-0.538924</Longitud>
</localidad>
<localidad>
<nombre>Tarifa</nombre>
<IdProvincia>12</IdProvincia>
<ID>40</ID>
<Latitud>36.01271</Latitud>
<Longitud>-5.602954</Longitud>
</localidad>
<localidad>
<nombre>Tarragona</nombre>
<IdProvincia>45</IdProvincia>
<ID>41</ID>
<Latitud>41.11866</Latitud>
<Longitud>1.24533</Longitud>
</localidad>
<localidad>
<nombre>Tauste</nombre>
<IdProvincia>52</IdProvincia>
<ID>42</ID>
<Latitud>41.92117</Latitud>
<Longitud>-1.2554</Longitud>
</localidad>
<localidad>
<nombre>Teruel</nombre>
<IdProvincia>46</IdProvincia>
<ID>43</ID>
<Latitud>40.34411</Latitud>
<Longitud>-1.10691</Longitud>
</localidad>
<localidad>
<nombre>Teverga</nombre>
<IdProvincia>6</IdProvincia>
<ID>44</ID>
<Latitud>43.15</Latitud>
<Longitud>-6.1</Longitud>
</localidad>
<localidad>
<nombre>Tiebas-Muruarte de Reta</nombre>
<IdProvincia>36</IdProvincia>
<ID>45</ID>
<Latitud>42.69312</Latitud>
<Longitud>-1.640636</Longitud>
</localidad>
<localidad>
<nombre>Tineo</nombre>
<IdProvincia>6</IdProvincia>
<ID>46</ID>
<Latitud>43.33509</Latitud>
<Longitud>-6.414816</Longitud>
</localidad>
<localidad>
<nombre>Toledo</nombre>
<IdProvincia>47</IdProvincia>
<ID>47</ID>
<Latitud>39.85678</Latitud>
<Longitud>-4.024476</Longitud>
</localidad>
<localidad>
<nombre>Tolosa</nombre>
<IdProvincia>22</IdProvincia>
<ID>48</ID>
<Latitud>43.13698</Latitud>
<Longitud>-2.073914</Longitud>
</localidad>
<localidad>
<nombre>Tolox</nombre>
<IdProvincia>33</IdProvincia>
<ID>49</ID>
<Latitud>36.68674</Latitud>
<Longitud>-4.904676</Longitud>
</localidad>
<localidad>
<nombre>Toreno</nombre>
<IdProvincia>29</IdProvincia>
<ID>50</ID>
<Latitud>42.70055</Latitud>
<Longitud>-6.509904</Longitud>
</localidad>
<localidad>
<nombre>Torla</nombre>
<IdProvincia>24</IdProvincia>
<ID>51</ID>
<Latitud>42.62793</Latitud>
<Longitud>-0.1106253</Longitud>
</localidad>
<localidad>
<nombre>Torre Alháquime</nombre>
<IdProvincia>12</IdProvincia>
<ID>52</ID>
<Latitud>36.91553</Latitud>
<Longitud>-5.234736</Longitud>
</localidad>
<localidad>
<nombre>Torre de las Arcas</nombre>
<IdProvincia>46</IdProvincia>
<ID>53</ID>
<Latitud>40.84147</Latitud>
<Longitud>-0.7188649</Longitud>
</localidad>
<localidad>
<nombre>Torremejía</nombre>
<IdProvincia>8</IdProvincia>
<ID>54</ID>
<Latitud>38.78965</Latitud>
<Longitud>-6.381672</Longitud>
</localidad>
<localidad>
<nombre>Torrevelilla</nombre>
<IdProvincia>46</IdProvincia>
<ID>55</ID>
<Latitud>40.90303</Latitud>
<Longitud>-0.1098415</Longitud>
</localidad>
<localidad>
<nombre>Torrico</nombre>
<IdProvincia>47</IdProvincia>
<ID>56</ID>
<Latitud>39.83018</Latitud>
<Longitud>-5.227055</Longitud>
</localidad>
<localidad>
<nombre>Torrijos</nombre>
<IdProvincia>47</IdProvincia>
<ID>57</ID>
<Latitud>39.98128</Latitud>
<Longitud>-4.284419</Longitud>
</localidad>
<localidad>
<nombre>Torvizcón</nombre>
<IdProvincia>20</IdProvincia>
<ID>58</ID>
<Latitud>36.87788</Latitud>
<Longitud>-3.298552</Longitud>
</localidad>
<localidad>
<nombre>Tramacastilla</nombre>
<IdProvincia>46</IdProvincia>
<ID>59</ID>
<Latitud>40.43096</Latitud>
<Longitud>-1.56905</Longitud>
</localidad>
<localidad>
<nombre>Trebujena</nombre>
<IdProvincia>12</IdProvincia>
<ID>60</ID>
<Latitud>36.86951</Latitud>
<Longitud>-6.176695</Longitud>
</localidad>
<localidad>
<nombre>Tudela</nombre>
<IdProvincia>36</IdProvincia>
<ID>61</ID>
<Latitud>42.06388</Latitud>
<Longitud>-1.605718</Longitud>
</localidad>
<localidad>
<nombre>Ubrique</nombre>
<IdProvincia>12</IdProvincia>
<ID>62</ID>
<Latitud>36.67771</Latitud>
<Longitud>-5.446557</Longitud>
</localidad>
<localidad>
<nombre>Uncastillo</nombre>
<IdProvincia>52</IdProvincia>
<ID>63</ID>
<Latitud>42.3615</Latitud>
<Longitud>-1.130387</Longitud>
</localidad>
<localidad>
<nombre>Utrera</nombre>
<IdProvincia>43</IdProvincia>
<ID>64</ID>
<Latitud>37.18142</Latitud>
<Longitud>-5.781507</Longitud>
</localidad>
<localidad>
<nombre>Vadocondes</nombre>
<IdProvincia>10</IdProvincia>
<ID>65</ID>
<Latitud>41.63945</Latitud>
<Longitud>-3.573707</Longitud>
</localidad>
<localidad>
<nombre>Val de San Martín</nombre>
<IdProvincia>52</IdProvincia>
<ID>66</ID>
<Latitud>41.05718</Latitud>
<Longitud>-1.446303</Longitud>
</localidad>
<localidad>
<nombre>Valdealgorfa</nombre>
<IdProvincia>46</IdProvincia>
<ID>67</ID>
<Latitud>40.99085</Latitud>
<Longitud>-0.0347835</Longitud>
</localidad>
<localidad>
<nombre>Valdelinares</nombre>
<IdProvincia>46</IdProvincia>
<ID>68</ID>
<Latitud>40.3917</Latitud>
<Longitud>-0.6063926</Longitud>
</localidad>
<localidad>
<nombre>Valdemorillo</nombre>
<IdProvincia>32</IdProvincia>
<ID>69</ID>
<Latitud>40.50208</Latitud>
<Longitud>-4.065841</Longitud>
</localidad>
<localidad>
<nombre>Valdepeñas</nombre>
<IdProvincia>16</IdProvincia>
<ID>70</ID>
<Latitud>38.76053</Latitud>
<Longitud>-3.384104</Longitud>
</localidad>
<localidad>
<nombre>Valdepolo</nombre>
<IdProvincia>29</IdProvincia>
<ID>71</ID>
<Latitud>42.57626</Latitud>
<Longitud>-5.22613</Longitud>
</localidad>
<localidad>
<nombre>Valdés</nombre>
<IdProvincia>6</IdProvincia>
<ID>72</ID>
<Latitud>43.54389</Latitud>
<Longitud>-6.535833</Longitud>
</localidad>
<localidad>
<nombre>Valencia</nombre>
<IdProvincia>48</IdProvincia>
<ID>73</ID>
<Latitud>39.47024</Latitud>
<Longitud>-0.3768049</Longitud>
</localidad>
<localidad>
<nombre>Valjunquera</nombre>
<IdProvincia>46</IdProvincia>
<ID>74</ID>
<Latitud>40.95302</Latitud>
<Longitud>0.0259745</Longitud>
</localidad>
<localidad>
<nombre>Valladolid</nombre>
<IdProvincia>49</IdProvincia>
<ID>75</ID>
<Latitud>41.65295</Latitud>
<Longitud>-4.728388</Longitud>
</localidad>
<localidad>
<nombre>Valle de Abdalajís</nombre>
<IdProvincia>33</IdProvincia>
<ID>76</ID>
<Latitud>36.93133</Latitud>
<Longitud>-4.682709</Longitud>
</localidad>
<localidad>
<nombre>Valle de Sedano</nombre>
<IdProvincia>10</IdProvincia>
<ID>77</ID>
<Latitud>42.71544</Latitud>
<Longitud>-3.749611</Longitud>
</localidad>
<localidad>
<nombre>Valle, El</nombre>
<IdProvincia>20</IdProvincia>
<ID>78</ID>
<Latitud>37.28611</Latitud>
<Longitud>-3.008889</Longitud>
</localidad>
<localidad>
<nombre>Valls</nombre>
<IdProvincia>45</IdProvincia>
<ID>79</ID>
<Latitud>41.28728</Latitud>
<Longitud>1.251579</Longitud>
</localidad>
<localidad>
<nombre>Vegadeo</nombre>
<IdProvincia>6</IdProvincia>
<ID>80</ID>
<Latitud>43.46476</Latitud>
<Longitud>-7.05106</Longitud>
</localidad>
<localidad>
<nombre>Vélez-Málaga</nombre>
<IdProvincia>33</IdProvincia>
<ID>81</ID>
<Latitud>36.77864</Latitud>
<Longitud>-4.100675</Longitud>
</localidad>
<localidad>
<nombre>Vendrell, El</nombre>
<IdProvincia>45</IdProvincia>
<ID>82</ID>
<Latitud>41.22042</Latitud>
<Longitud>1.534845</Longitud>
</localidad>
<localidad>
<nombre>Vicién</nombre>
<IdProvincia>24</IdProvincia>
<ID>83</ID>
<Latitud>42.0555</Latitud>
<Longitud>-0.4401985</Longitud>
</localidad>
<localidad>
<nombre>Vilafranca del Penedès</nombre>
<IdProvincia>9</IdProvincia>
<ID>84</ID>
<Latitud>41.34509</Latitud>
<Longitud>1.699849</Longitud>
</localidad>
<localidad>
<nombre>Villafranca de Córdoba</nombre>
<IdProvincia>17</IdProvincia>
<ID>85</ID>
<Latitud>37.96193</Latitud>
<Longitud>-4.545728</Longitud>
</localidad>
<localidad>
<nombre>Villafranca Montes de Oca</nombre>
<IdProvincia>10</IdProvincia>
<ID>86</ID>
<Latitud>42.38651</Latitud>
<Longitud>-3.309347</Longitud>
</localidad>
<localidad>
<nombre>Villalba de Duero</nombre>
<IdProvincia>10</IdProvincia>
<ID>87</ID>
<Latitud>41.6824</Latitud>
<Longitud>-3.745252</Longitud>
</localidad>
<localidad>
<nombre>Villamartín</nombre>
<IdProvincia>12</IdProvincia>
<ID>88</ID>
<Latitud>36.86132</Latitud>
<Longitud>-5.641834</Longitud>
</localidad>
<localidad>
<nombre>Villamayor de los Montes</nombre>
<IdProvincia>10</IdProvincia>
<ID>89</ID>
<Latitud>42.10576</Latitud>
<Longitud>-3.766267</Longitud>
</localidad>
<localidad>
<nombre>Villamediana</nombre>
<IdProvincia>38</IdProvincia>
<ID>90</ID>
<Latitud>42.04987</Latitud>
<Longitud>-4.361402</Longitud>
</localidad>
<localidad>
<nombre>Villanueva de Gállego</nombre>
<IdProvincia>52</IdProvincia>
<ID>91</ID>
<Latitud>41.76796</Latitud>
<Longitud>-0.8275479</Longitud>
</localidad>
<localidad>
<nombre>Villanueva de los Castillejos</nombre>
<IdProvincia>23</IdProvincia>
<ID>92</ID>
<Latitud>37.50046</Latitud>
<Longitud>-7.272443</Longitud>
</localidad>
<localidad>
<nombre>Villanueva de San Juan</nombre>
<IdProvincia>43</IdProvincia>
<ID>93</ID>
<Latitud>37.05036</Latitud>
<Longitud>-5.175473</Longitud>
</localidad>
<localidad>
<nombre>Villanueva del Río y Minas</nombre>
<IdProvincia>43</IdProvincia>
<ID>94</ID>
<Latitud>37.6601</Latitud>
<Longitud>-5.714389</Longitud>
</localidad>
<localidad>
<nombre>Villanueva del Rosario</nombre>
<IdProvincia>33</IdProvincia>
<ID>95</ID>
<Latitud>36.99622</Latitud>
<Longitud>-4.364309</Longitud>
</localidad>
<localidad>
<nombre>Villanueva del Trabuco</nombre>
<IdProvincia>33</IdProvincia>
<ID>96</ID>
<Latitud>37.02825</Latitud>
<Longitud>-4.338388</Longitud>
</localidad>
<localidad>
<nombre>Villarejo de la Peñuela</nombre>
<IdProvincia>18</IdProvincia>
<ID>97</ID>
<Latitud>40.08784</Latitud>
<Longitud>-2.410047</Longitud>
</localidad>
<localidad>
<nombre>Villarquemado</nombre>
<IdProvincia>46</IdProvincia>
<ID>98</ID>
<Latitud>40.51945</Latitud>
<Longitud>-1.267652</Longitud>
</localidad>
<localidad>
<nombre>Villarrobledo</nombre>
<IdProvincia>3</IdProvincia>
<ID>99</ID>
<Latitud>39.26726</Latitud>
<Longitud>-2.607643</Longitud>
</localidad>
<localidad>
<nombre>Villasbuenas de Gata</nombre>
<IdProvincia>11</IdProvincia>
<ID>100</ID>
<Latitud>40.1794</Latitud>
<Longitud>-6.625679</Longitud>
</localidad>
<localidad>
<nombre>Villastar</nombre>
<IdProvincia>46</IdProvincia>
<ID>101</ID>
<Latitud>40.28053</Latitud>
<Longitud>-1.152892</Longitud>
</localidad>
<localidad>
<nombre>Villaviciosa</nombre>
<IdProvincia>6</IdProvincia>
<ID>102</ID>
<Latitud>43.48137</Latitud>
<Longitud>-5.435346</Longitud>
</localidad>
<localidad>
<nombre>Villel</nombre>
<IdProvincia>46</IdProvincia>
<ID>103</ID>
<Latitud>40.23469</Latitud>
<Longitud>-1.187274</Longitud>
</localidad>
<localidad>
<nombre>Vitoria-Gasteiz</nombre>
<IdProvincia>2</IdProvincia>
<ID>104</ID>
<Latitud>42.84641</Latitud>
<Longitud>-2.667893</Longitud>
</localidad>
<localidad>
<nombre>Víznar</nombre>
<IdProvincia>20</IdProvincia>
<ID>105</ID>
<Latitud>37.23108</Latitud>
<Longitud>-3.553835</Longitud>
</localidad>
<localidad>
<nombre>Yebra de Basa</nombre>
<IdProvincia>24</IdProvincia>
<ID>106</ID>
<Latitud>42.48631</Latitud>
<Longitud>-0.2820295</Longitud>
</localidad>
<localidad>
<nombre>Yerri</nombre>
<IdProvincia>36</IdProvincia>
<ID>107</ID>
<Latitud>42.71667</Latitud>
<Longitud>-2</Longitud>
</localidad>
<localidad>
<nombre>Zalamea la Real</nombre>
<IdProvincia>23</IdProvincia>
<ID>108</ID>
<Latitud>37.67891</Latitud>
<Longitud>-6.660578</Longitud>
</localidad>
<localidad>
<nombre>Zaragoza</nombre>
<IdProvincia>52</IdProvincia>
<ID>109</ID>
<Latitud>41.65629</Latitud>
<Longitud>-0.8765379</Longitud>
</localidad>
<localidad>
<nombre>Zigoitia</nombre>
<IdProvincia>2</IdProvincia>
<ID>110</ID>
<Latitud>42.9682</Latitud>
<Longitud>-2.7183</Longitud>
</localidad>
<localidad>
<nombre>Zufre</nombre>
<IdProvincia>23</IdProvincia>
<ID>111</ID>
<Latitud>37.83384</Latitud>
<Longitud>-6.338613</Longitud>
</localidad>
<localidad>
<nombre>Adamuz</nombre>
<IdProvincia>17</IdProvincia>
<ID>112</ID>
<Latitud>38.02736</Latitud>
<Longitud>-4.524873</Longitud>
</localidad>
<localidad>
<nombre>Adrada de Haza</nombre>
<IdProvincia>10</IdProvincia>
<ID>113</ID>
<Latitud>41.59426</Latitud>
<Longitud>-3.821794</Longitud>
</localidad>
<localidad>
<nombre>Aguadulce</nombre>
<IdProvincia>43</IdProvincia>
<ID>114</ID>
<Latitud>37.25283</Latitud>
<Longitud>-4.991125</Longitud>
</localidad>
<localidad>
<nombre>Agüero</nombre>
<IdProvincia>24</IdProvincia>
<ID>115</ID>
<Latitud>42.35485</Latitud>
<Longitud>-0.7945753</Longitud>
</localidad>
<localidad>
<nombre>Albacete</nombre>
<IdProvincia>3</IdProvincia>
<ID>116</ID>
<Latitud>38.99765</Latitud>
<Longitud>-1.86007</Longitud>
</localidad>
<localidad>
<nombre>Albarracín</nombre>
<IdProvincia>46</IdProvincia>
<ID>117</ID>
<Latitud>40.40652</Latitud>
<Longitud>-1.444402</Longitud>
</localidad>
<localidad>
<nombre>Alcalá de la Selva</nombre>
<IdProvincia>46</IdProvincia>
<ID>118</ID>
<Latitud>40.37181</Latitud>
<Longitud>-0.7197202</Longitud>
</localidad>
<localidad>
<nombre>Alcalá del Río</nombre>
<IdProvincia>43</IdProvincia>
<ID>119</ID>
<Latitud>37.51827</Latitud>
<Longitud>-5.978236</Longitud>
</localidad>
<localidad>
<nombre>Alcañiz</nombre>
<IdProvincia>46</IdProvincia>
<ID>120</ID>
<Latitud>41.04895</Latitud>
<Longitud>-0.1306302</Longitud>
</localidad>
<localidad>
<nombre>Alcaudete de la Jara</nombre>
<IdProvincia>47</IdProvincia>
<ID>121</ID>
<Latitud>39.79322</Latitud>
<Longitud>-4.870331</Longitud>
</localidad>
<localidad>
<nombre>Alcázar de San Juan</nombre>
<IdProvincia>16</IdProvincia>
<ID>122</ID>
<Latitud>39.38993</Latitud>
<Longitud>-3.210137</Longitud>
</localidad>
<localidad>
<nombre>Alcubierre</nombre>
<IdProvincia>24</IdProvincia>
<ID>123</ID>
<Latitud>41.8068</Latitud>
<Longitud>-0.4514643</Longitud>
</localidad>
<localidad>
<nombre>Aldeaseca</nombre>
<IdProvincia>7</IdProvincia>
<ID>124</ID>
<Latitud>41.04952</Latitud>
<Longitud>-4.817433</Longitud>
</localidad>
<localidad>
<nombre>Alfarnatejo</nombre>
<IdProvincia>33</IdProvincia>
<ID>125</ID>
<Latitud>36.97935</Latitud>
<Longitud>-4.272528</Longitud>
</localidad>
<localidad>
<nombre>Alhama de Aragón</nombre>
<IdProvincia>52</IdProvincia>
<ID>126</ID>
<Latitud>41.29637</Latitud>
<Longitud>-1.894019</Longitud>
</localidad>
<localidad>
<nombre>Alhama de Granada</nombre>
<IdProvincia>20</IdProvincia>
<ID>127</ID>
<Latitud>37.00252</Latitud>
<Longitud>-3.988389</Longitud>
</localidad>
<localidad>
<nombre>Almansa</nombre>
<IdProvincia>3</IdProvincia>
<ID>128</ID>
<Latitud>38.86941</Latitud>
<Longitud>-1.097517</Longitud>
</localidad>
<localidad>
<nombre>Almazora/Almassora</nombre>
<IdProvincia>14</IdProvincia>
<ID>129</ID>
<Latitud>39.94497</Latitud>
<Longitud>-0.0633176</Longitud>
</localidad>
<localidad>
<nombre>Almería</nombre>
<IdProvincia>5</IdProvincia>
<ID>130</ID>
<Latitud>36.84016</Latitud>
<Longitud>-2.467922</Longitud>
</localidad>
<localidad>
<nombre>Almodóvar del Río</nombre>
<IdProvincia>17</IdProvincia>
<ID>131</ID>
<Latitud>37.80959</Latitud>
<Longitud>-5.019958</Longitud>
</localidad>
<localidad>
<nombre>Almuñécar</nombre>
<IdProvincia>20</IdProvincia>
<ID>132</ID>
<Latitud>36.73454</Latitud>
<Longitud>-3.690736</Longitud>
</localidad>
<localidad>
<nombre>Alpartir</nombre>
<IdProvincia>52</IdProvincia>
<ID>133</ID>
<Latitud>41.42068</Latitud>
<Longitud>-1.382381</Longitud>
</localidad>
<localidad>
<nombre>Amorebieta-Etxano</nombre>
<IdProvincia>50</IdProvincia>
<ID>134</ID>
<Latitud>43.2205</Latitud>
<Longitud>-2.733236</Longitud>
</localidad>
<localidad>
<nombre>Ampudia</nombre>
<IdProvincia>38</IdProvincia>
<ID>135</ID>
<Latitud>41.91397</Latitud>
<Longitud>-4.780129</Longitud>
</localidad>
<localidad>
<nombre>Amurrio</nombre>
<IdProvincia>2</IdProvincia>
<ID>136</ID>
<Latitud>43.05265</Latitud>
<Longitud>-3.001022</Longitud>
</localidad>
<localidad>
<nombre>Andosilla</nombre>
<IdProvincia>36</IdProvincia>
<ID>137</ID>
<Latitud>42.37699</Latitud>
<Longitud>-1.942034</Longitud>
</localidad>
<localidad>
<nombre>Antequera</nombre>
<IdProvincia>33</IdProvincia>
<ID>138</ID>
<Latitud>37.01938</Latitud>
<Longitud>-4.562885</Longitud>
</localidad>
<localidad>
<nombre>Aranda de Duero</nombre>
<IdProvincia>10</IdProvincia>
<ID>139</ID>
<Latitud>41.67171</Latitud>
<Longitud>-3.686569</Longitud>
</localidad>
<localidad>
<nombre>Arcos de la Frontera</nombre>
<IdProvincia>12</IdProvincia>
<ID>140</ID>
<Latitud>36.75078</Latitud>
<Longitud>-5.812395</Longitud>
</localidad>
<localidad>
<nombre>Arcos de la Sierra</nombre>
<IdProvincia>18</IdProvincia>
<ID>141</ID>
<Latitud>40.3467</Latitud>
<Longitud>-2.112911</Longitud>
</localidad>
<localidad>
<nombre>Arganda del Rey</nombre>
<IdProvincia>32</IdProvincia>
<ID>142</ID>
<Latitud>40.30095</Latitud>
<Longitud>-3.43808</Longitud>
</localidad>
<localidad>
<nombre>Argavieso</nombre>
<IdProvincia>24</IdProvincia>
<ID>143</ID>
<Latitud>42.05301</Latitud>
<Longitud>-0.2790706</Longitud>
</localidad>
<localidad>
<nombre>Arjona</nombre>
<IdProvincia>26</IdProvincia>
<ID>144</ID>
<Latitud>37.93648</Latitud>
<Longitud>-4.054891</Longitud>
</localidad>
<localidad>
<nombre>Arraia-Maeztu</nombre>
<IdProvincia>2</IdProvincia>
<ID>145</ID>
<Latitud>42.73981</Latitud>
<Longitud>-2.44598</Longitud>
</localidad>
<localidad>
<nombre>Arriate</nombre>
<IdProvincia>33</IdProvincia>
<ID>146</ID>
<Latitud>36.79936</Latitud>
<Longitud>-5.140064</Longitud>
</localidad>
<localidad>
<nombre>Asso-Veral</nombre>
<IdProvincia>52</IdProvincia>
<ID>147</ID>
<Latitud>42.6185355</Latitud>
<Longitud>-0.9311183</Longitud>
</localidad>
<localidad>
<nombre>Astorga</nombre>
<IdProvincia>29</IdProvincia>
<ID>148</ID>
<Latitud>42.4589</Latitud>
<Longitud>-6.063526</Longitud>
</localidad>
<localidad>
<nombre>Ateca</nombre>
<IdProvincia>52</IdProvincia>
<ID>149</ID>
<Latitud>41.33101</Latitud>
<Longitud>-1.793537</Longitud>
</localidad>
<localidad>
<nombre>Avilés</nombre>
<IdProvincia>6</IdProvincia>
<ID>150</ID>
<Latitud>43.55577</Latitud>
<Longitud>-5.927617</Longitud>
</localidad>
<localidad>
<nombre>Ayerbe</nombre>
<IdProvincia>24</IdProvincia>
<ID>151</ID>
<Latitud>42.27497</Latitud>
<Longitud>-0.6887537</Longitud>
</localidad>
<localidad>
<nombre>Azaila</nombre>
<IdProvincia>46</IdProvincia>
<ID>152</ID>
<Latitud>41.29047</Latitud>
<Longitud>-0.4952874</Longitud>
</localidad>
<localidad>
<nombre>Aznalcóllar</nombre>
<IdProvincia>43</IdProvincia>
<ID>153</ID>
<Latitud>37.52354</Latitud>
<Longitud>-6.269565</Longitud>
</localidad>
<localidad>
<nombre>Azuara</nombre>
<IdProvincia>52</IdProvincia>
<ID>154</ID>
<Latitud>41.25877</Latitud>
<Longitud>-0.8684728</Longitud>
</localidad>
<localidad>
<nombre>Badajoz</nombre>
<IdProvincia>8</IdProvincia>
<ID>155</ID>
<Latitud>38.8786</Latitud>
<Longitud>-6.970284</Longitud>
</localidad>
<localidad>
<nombre>Badolatosa</nombre>
<IdProvincia>43</IdProvincia>
<ID>156</ID>
<Latitud>37.30871</Latitud>
<Longitud>-4.672858</Longitud>
</localidad>
<localidad>
<nombre>Baena</nombre>
<IdProvincia>17</IdProvincia>
<ID>157</ID>
<Latitud>37.61441</Latitud>
<Longitud>-4.326089</Longitud>
</localidad>
<localidad>
<nombre>Balmaseda</nombre>
<IdProvincia>50</IdProvincia>
<ID>158</ID>
<Latitud>43.19287</Latitud>
<Longitud>-3.196942</Longitud>
</localidad>
<localidad>
<nombre>Barbastro</nombre>
<IdProvincia>24</IdProvincia>
<ID>159</ID>
<Latitud>42.0348</Latitud>
<Longitud>0.1239805</Longitud>
</localidad>
<localidad>
<nombre>Barcelona</nombre>
<IdProvincia>9</IdProvincia>
<ID>160</ID>
<Latitud>41.38792</Latitud>
<Longitud>2.169919</Longitud>
</localidad>
<localidad>
<nombre>Barchín del Hoyo</nombre>
<IdProvincia>18</IdProvincia>
<ID>161</ID>
<Latitud>39.66472</Latitud>
<Longitud>-2.069453</Longitud>
</localidad>
<localidad>
<nombre>Barcones</nombre>
<IdProvincia>44</IdProvincia>
<ID>162</ID>
<Latitud>41.29187</Latitud>
<Longitud>-2.816489</Longitud>
</localidad>
<localidad>
<nombre>Beas</nombre>
<IdProvincia>23</IdProvincia>
<ID>163</ID>
<Latitud>37.42592</Latitud>
<Longitud>-6.792988</Longitud>
</localidad>
<localidad>
<nombre>Belchite</nombre>
<IdProvincia>52</IdProvincia>
<ID>164</ID>
<Latitud>41.3061</Latitud>
<Longitud>-0.7543449</Longitud>
</localidad>
<localidad>
<nombre>Belmez</nombre>
<IdProvincia>17</IdProvincia>
<ID>165</ID>
<Latitud>38.27234</Latitud>
<Longitud>-5.208753</Longitud>
</localidad>
<localidad>
<nombre>Belmonte de Miranda</nombre>
<IdProvincia>6</IdProvincia>
<ID>166</ID>
<Latitud>43.28253</Latitud>
<Longitud>-6.218905</Longitud>
</localidad>
<localidad>
<nombre>Benabarre</nombre>
<IdProvincia>24</IdProvincia>
<ID>167</ID>
<Latitud>42.10639</Latitud>
<Longitud>0.4791799</Longitud>
</localidad>
<localidad>
<nombre>Benacazón</nombre>
<IdProvincia>43</IdProvincia>
<ID>168</ID>
<Latitud>37.35343</Latitud>
<Longitud>-6.199005</Longitud>
</localidad>
<localidad>
<nombre>Benalup</nombre>
<IdProvincia>12</IdProvincia>
<ID>169</ID>
<Latitud>36.34284</Latitud>
<Longitud>-5.8094</Longitud>
</localidad>
<localidad>
<nombre>Benaocaz</nombre>
<IdProvincia>12</IdProvincia>
<ID>170</ID>
<Latitud>36.69952</Latitud>
<Longitud>-5.421263</Longitud>
</localidad>
<localidad>
<nombre>Benasque</nombre>
<IdProvincia>24</IdProvincia>
<ID>171</ID>
<Latitud>42.60514</Latitud>
<Longitud>0.5239731</Longitud>
</localidad>
<localidad>
<nombre>Bera/Vera de Bidasoa</nombre>
<IdProvincia>36</IdProvincia>
<ID>172</ID>
<Latitud>43.28069</Latitud>
<Longitud>-1.682699</Longitud>
</localidad>
<localidad>
<nombre>Bercial de Zapardiel</nombre>
<IdProvincia>7</IdProvincia>
<ID>173</ID>
<Latitud>41.04642</Latitud>
<Longitud>-4.969301</Longitud>
</localidad>
<localidad>
<nombre>Berrioplano</nombre>
<IdProvincia>36</IdProvincia>
<ID>174</ID>
<Latitud>42.85239</Latitud>
<Longitud>-1.692535</Longitud>
</localidad>
<localidad>
<nombre>Biescas</nombre>
<IdProvincia>24</IdProvincia>
<ID>175</ID>
<Latitud>42.62798</Latitud>
<Longitud>-0.3246984</Longitud>
</localidad>
<localidad>
<nombre>Bimenes</nombre>
<IdProvincia>6</IdProvincia>
<ID>176</ID>
<Latitud>43.3307</Latitud>
<Longitud>-5.564885</Longitud>
</localidad>
<localidad>
<nombre>Biscarrués</nombre>
<IdProvincia>24</IdProvincia>
<ID>177</ID>
<Latitud>42.22821</Latitud>
<Longitud>-0.7515044</Longitud>
</localidad>
<localidad>
<nombre>Boltaña</nombre>
<IdProvincia>24</IdProvincia>
<ID>178</ID>
<Latitud>42.44247</Latitud>
<Longitud>0.0698157</Longitud>
</localidad>
<localidad>
<nombre>Borja</nombre>
<IdProvincia>52</IdProvincia>
<ID>179</ID>
<Latitud>41.83517</Latitud>
<Longitud>-1.531878</Longitud>
</localidad>
<localidad>
<nombre>Bosque, El</nombre>
<IdProvincia>12</IdProvincia>
<ID>180</ID>
<Latitud>36.75752</Latitud>
<Longitud>-5.506988</Longitud>
</localidad>
<localidad>
<nombre>Brunete</nombre>
<IdProvincia>32</IdProvincia>
<ID>181</ID>
<Latitud>40.40554</Latitud>
<Longitud>-3.997736</Longitud>
</localidad>
<localidad>
<nombre>Bujalance</nombre>
<IdProvincia>17</IdProvincia>
<ID>182</ID>
<Latitud>37.89657</Latitud>
<Longitud>-4.383588</Longitud>
</localidad>
<localidad>
<nombre>Burón</nombre>
<IdProvincia>29</IdProvincia>
<ID>183</ID>
<Latitud>43.02356</Latitud>
<Longitud>-5.051342</Longitud>
</localidad>
<localidad>
<nombre>Cabezas Rubias</nombre>
<IdProvincia>23</IdProvincia>
<ID>184</ID>
<Latitud>37.7265</Latitud>
<Longitud>-7.087451</Longitud>
</localidad>
<localidad>
<nombre>Cabrales</nombre>
<IdProvincia>6</IdProvincia>
<ID>185</ID>
<Latitud>43.3</Latitud>
<Longitud>-4.8</Longitud>
</localidad>
<localidad>
<nombre>Cádiz</nombre>
<IdProvincia>12</IdProvincia>
<ID>186</ID>
<Latitud>36.52969</Latitud>
<Longitud>-6.292657</Longitud>
</localidad>
<localidad>
<nombre>Cadreita</nombre>
<IdProvincia>36</IdProvincia>
<ID>187</ID>
<Latitud>42.21754</Latitud>
<Longitud>-1.695602</Longitud>
</localidad>
<localidad>
<nombre>Calaceite</nombre>
<IdProvincia>46</IdProvincia>
<ID>188</ID>
<Latitud>41.01737</Latitud>
<Longitud>0.1883228</Longitud>
</localidad>
<localidad>
<nombre>Calamocha</nombre>
<IdProvincia>46</IdProvincia>
<ID>189</ID>
<Latitud>40.92026</Latitud>
<Longitud>-1.300972</Longitud>
</localidad>
<localidad>
<nombre>Calamonte</nombre>
<IdProvincia>8</IdProvincia>
<ID>190</ID>
<Latitud>38.88998</Latitud>
<Longitud>-6.385029</Longitud>
</localidad>
<localidad>
<nombre>Calanda</nombre>
<IdProvincia>46</IdProvincia>
<ID>191</ID>
<Latitud>40.94182</Latitud>
<Longitud>-0.2341148</Longitud>
</localidad>
<localidad>
<nombre>Calatayud</nombre>
<IdProvincia>52</IdProvincia>
<ID>192</ID>
<Latitud>41.35432</Latitud>
<Longitud>-1.647009</Longitud>
</localidad>
<localidad>
<nombre>Caldearenas</nombre>
<IdProvincia>24</IdProvincia>
<ID>193</ID>
<Latitud>42.39699</Latitud>
<Longitud>-0.4999619</Longitud>
</localidad>
<localidad>
<nombre>Calera y Chozas</nombre>
<IdProvincia>47</IdProvincia>
<ID>194</ID>
<Latitud>39.88144</Latitud>
<Longitud>-4.978609</Longitud>
</localidad>
<localidad>
<nombre>Campillo de Llerena</nombre>
<IdProvincia>8</IdProvincia>
<ID>195</ID>
<Latitud>38.50023</Latitud>
<Longitud>-5.831132</Longitud>
</localidad>
<localidad>
<nombre>Campillos</nombre>
<IdProvincia>33</IdProvincia>
<ID>196</ID>
<Latitud>37.04541</Latitud>
<Longitud>-4.861525</Longitud>
</localidad>
<localidad>
<nombre>Camponaraya</nombre>
<IdProvincia>29</IdProvincia>
<ID>197</ID>
<Latitud>42.58083</Latitud>
<Longitud>-6.670298</Longitud>
</localidad>
<localidad>
<nombre>Candamo</nombre>
<IdProvincia>6</IdProvincia>
<ID>198</ID>
<Latitud>43.44661</Latitud>
<Longitud>-6.058167</Longitud>
</localidad>
<localidad>
<nombre>Candeleda</nombre>
<IdProvincia>7</IdProvincia>
<ID>199</ID>
<Latitud>40.15509</Latitud>
<Longitud>-5.239784</Longitud>
</localidad>
<localidad>
<nombre>Cangas de Onís</nombre>
<IdProvincia>6</IdProvincia>
<ID>200</ID>
<Latitud>43.3485</Latitud>
<Longitud>-5.126967</Longitud>
</localidad>
<localidad>
<nombre>Cangas del Narcea</nombre>
<IdProvincia>6</IdProvincia>
<ID>201</ID>
<Latitud>43.17706</Latitud>
<Longitud>-6.549129</Longitud>
</localidad>
<localidad>
<nombre>Cañete la Real</nombre>
<IdProvincia>33</IdProvincia>
<ID>202</ID>
<Latitud>36.95146</Latitud>
<Longitud>-5.024308</Longitud>
</localidad>
<localidad>
<nombre>Cañizares</nombre>
<IdProvincia>18</IdProvincia>
<ID>203</ID>
<Latitud>40.51731</Latitud>
<Longitud>-2.192938</Longitud>
</localidad>
<localidad>
<nombre>Cariñena</nombre>
<IdProvincia>52</IdProvincia>
<ID>204</ID>
<Latitud>41.33694</Latitud>
<Longitud>-1.224118</Longitud>
</localidad>
<localidad>
<nombre>Carlota, La</nombre>
<IdProvincia>17</IdProvincia>
<ID>205</ID>
<Latitud>37.67361</Latitud>
<Longitud>-4.932553</Longitud>
</localidad>
<localidad>
<nombre>Carmona</nombre>
<IdProvincia>43</IdProvincia>
<ID>206</ID>
<Latitud>37.47102</Latitud>
<Longitud>-5.642328</Longitud>
</localidad>
<localidad>
<nombre>Carpio de Tajo, El</nombre>
<IdProvincia>47</IdProvincia>
<ID>207</ID>
<Latitud>39.88752</Latitud>
<Longitud>-4.45466</Longitud>
</localidad>
<localidad>
<nombre>Carpio, El</nombre>
<IdProvincia>17</IdProvincia>
<ID>208</ID>
<Latitud>37.94054</Latitud>
<Longitud>-4.498775</Longitud>
</localidad>
<localidad>
<nombre>Carranza</nombre>
<IdProvincia>50</IdProvincia>
<ID>209</ID>
<Latitud>43.22528</Latitud>
<Longitud>-3.359444</Longitud>
</localidad>
<localidad>
<nombre>Casarabonela</nombre>
<IdProvincia>33</IdProvincia>
<ID>210</ID>
<Latitud>36.78524</Latitud>
<Longitud>-4.842167</Longitud>
</localidad>
<localidad>
<nombre>Casares</nombre>
<IdProvincia>33</IdProvincia>
<ID>211</ID>
<Latitud>36.44333</Latitud>
<Longitud>-5.273519</Longitud>
</localidad>
<localidad>
<nombre>Caso</nombre>
<IdProvincia>6</IdProvincia>
<ID>212</ID>
<Latitud>43.18333</Latitud>
<Longitud>-5.35</Longitud>
</localidad>
<localidad>
<nombre>Caspe</nombre>
<IdProvincia>52</IdProvincia>
<ID>213</ID>
<Latitud>41.234</Latitud>
<Longitud>-0.0440777</Longitud>
</localidad>
<localidad>
<nombre>Castellar de la Frontera</nombre>
<IdProvincia>12</IdProvincia>
<ID>214</ID>
<Latitud>36.28621</Latitud>
<Longitud>-5.419937</Longitud>
</localidad>
<localidad>
<nombre>Castellón de la Plana/Castelló de la Plana</nombre>
<IdProvincia>14</IdProvincia>
<ID>215</ID>
<Latitud>39.98598</Latitud>
<Longitud>-0.0376709</Longitud>
</localidad>
<localidad>
<nombre>Castellote</nombre>
<IdProvincia>46</IdProvincia>
<ID>216</ID>
<Latitud>40.80043</Latitud>
<Longitud>-0.3202745</Longitud>
</localidad>
<localidad>
<nombre>Castilleja del Campo</nombre>
<IdProvincia>43</IdProvincia>
<ID>217</ID>
<Latitud>37.38591</Latitud>
<Longitud>-6.33445</Longitud>
</localidad>
<localidad>
<nombre>Castillo de las Guardas, El</nombre>
<IdProvincia>43</IdProvincia>
<ID>218</ID>
<Latitud>37.6916</Latitud>
<Longitud>-6.314299</Longitud>
</localidad>
<localidad>
<nombre>Castrillón</nombre>
<IdProvincia>6</IdProvincia>
<ID>219</ID>
<Latitud>43.55</Latitud>
<Longitud>-5.967</Longitud>
</localidad>
<localidad>
<nombre>Castrocontrigo</nombre>
<IdProvincia>29</IdProvincia>
<ID>220</ID>
<Latitud>42.183</Latitud>
<Longitud>-6.188392</Longitud>
</localidad>
<localidad>
<nombre>Castropol</nombre>
<IdProvincia>6</IdProvincia>
<ID>221</ID>
<Latitud>43.52812</Latitud>
<Longitud>-7.030118</Longitud>
</localidad>
<localidad>
<nombre>Castro-Urdiales</nombre>
<IdProvincia>13</IdProvincia>
<ID>222</ID>
<Latitud>43.38277</Latitud>
<Longitud>-3.21957</Longitud>
</localidad>
<localidad>
<nombre>Cella</nombre>
<IdProvincia>46</IdProvincia>
<ID>223</ID>
<Latitud>40.4551</Latitud>
<Longitud>-1.286764</Longitud>
</localidad>
<localidad>
<nombre>Cerro de Andévalo, El</nombre>
<IdProvincia>23</IdProvincia>
<ID>224</ID>
<Latitud>37.73519</Latitud>
<Longitud>-6.938734</Longitud>
</localidad>
<localidad>
<nombre>Chinchilla de Monte-Aragón</nombre>
<IdProvincia>3</IdProvincia>
<ID>225</ID>
<Latitud>38.91862</Latitud>
<Longitud>-1.722758</Longitud>
</localidad>
<localidad>
<nombre>Cincovillas</nombre>
<IdProvincia>21</IdProvincia>
<ID>226</ID>
<Latitud>41.20544</Latitud>
<Longitud>-2.818308</Longitud>
</localidad>
<localidad>
<nombre>Coaña</nombre>
<IdProvincia>6</IdProvincia>
<ID>227</ID>
<Latitud>43.51527</Latitud>
<Longitud>-6.750185</Longitud>
</localidad>
<localidad>
<nombre>Codo</nombre>
<IdProvincia>52</IdProvincia>
<ID>228</ID>
<Latitud>41.33324</Latitud>
<Longitud>-0.6999325</Longitud>
</localidad>
<localidad>
<nombre>Constantina</nombre>
<IdProvincia>43</IdProvincia>
<ID>229</ID>
<Latitud>37.87227</Latitud>
<Longitud>-5.619115</Longitud>
</localidad>
<localidad>
<nombre>Córdoba</nombre>
<IdProvincia>17</IdProvincia>
<ID>230</ID>
<Latitud>37.88473</Latitud>
<Longitud>-4.779152</Longitud>
</localidad>
<localidad>
<nombre>Corteconcepción</nombre>
<IdProvincia>23</IdProvincia>
<ID>231</ID>
<Latitud>37.89585</Latitud>
<Longitud>-6.505878</Longitud>
</localidad>
<localidad>
<nombre>Cuarte de Huerva</nombre>
<IdProvincia>52</IdProvincia>
<ID>232</ID>
<Latitud>41.59271</Latitud>
<Longitud>-0.9310773</Longitud>
</localidad>
<localidad>
<nombre>Cubillos del Sil</nombre>
<IdProvincia>29</IdProvincia>
<ID>233</ID>
<Latitud>42.62387</Latitud>
<Longitud>-6.563678</Longitud>
</localidad>
<localidad>
<nombre>Cudillero</nombre>
<IdProvincia>6</IdProvincia>
<ID>234</ID>
<Latitud>43.56096</Latitud>
<Longitud>-6.144997</Longitud>
</localidad>
<localidad>
<nombre>Cuenca</nombre>
<IdProvincia>18</IdProvincia>
<ID>235</ID>
<Latitud>40.07183</Latitud>
<Longitud>-2.134005</Longitud>
</localidad>
<localidad>
<nombre>Cuevas de San Marcos</nombre>
<IdProvincia>33</IdProvincia>
<ID>236</ID>
<Latitud>37.26963</Latitud>
<Longitud>-4.414079</Longitud>
</localidad>
<localidad>
<nombre>Daroca</nombre>
<IdProvincia>52</IdProvincia>
<ID>237</ID>
<Latitud>41.11533</Latitud>
<Longitud>-1.413934</Longitud>
</localidad>
<localidad>
<nombre>Deba</nombre>
<IdProvincia>22</IdProvincia>
<ID>238</ID>
<Latitud>43.29556</Latitud>
<Longitud>-2.353894</Longitud>
</localidad>
<localidad>
<nombre>Donostia-San Sebastián</nombre>
<IdProvincia>22</IdProvincia>
<ID>239</ID>
<Latitud>43.32074</Latitud>
<Longitud>-1.984421</Longitud>
</localidad>
<localidad>
<nombre>Dos Hermanas</nombre>
<IdProvincia>43</IdProvincia>
<ID>240</ID>
<Latitud>37.28318</Latitud>
<Longitud>-5.922242</Longitud>
</localidad>
<localidad>
<nombre>Écija</nombre>
<IdProvincia>43</IdProvincia>
<ID>241</ID>
<Latitud>37.54093</Latitud>
<Longitud>-5.079953</Longitud>
</localidad>
<localidad>
<nombre>Ejea de los Caballeros</nombre>
<IdProvincia>52</IdProvincia>
<ID>242</ID>
<Latitud>42.12921</Latitud>
<Longitud>-1.137434</Longitud>
</localidad>
<localidad>
<nombre>Ejulve</nombre>
<IdProvincia>46</IdProvincia>
<ID>243</ID>
<Latitud>40.77497</Latitud>
<Longitud>-0.5545593</Longitud>
</localidad>
<localidad>
<nombre>Elgeta</nombre>
<IdProvincia>22</IdProvincia>
<ID>244</ID>
<Latitud>43.13657</Latitud>
<Longitud>-2.487392</Longitud>
</localidad>
<localidad>
<nombre>Elgoibar</nombre>
<IdProvincia>22</IdProvincia>
<ID>245</ID>
<Latitud>43.21519</Latitud>
<Longitud>-2.415703</Longitud>
</localidad>
<localidad>
<nombre>Espartinas</nombre>
<IdProvincia>43</IdProvincia>
<ID>246</ID>
<Latitud>37.37997</Latitud>
<Longitud>-6.123577</Longitud>
</localidad>
<localidad>
<nombre>Espejo</nombre>
<IdProvincia>17</IdProvincia>
<ID>247</ID>
<Latitud>37.68211</Latitud>
<Longitud>-4.552363</Longitud>
</localidad>
<localidad>
<nombre>Espiel</nombre>
<IdProvincia>17</IdProvincia>
<ID>248</ID>
<Latitud>38.18865</Latitud>
<Longitud>-5.018202</Longitud>
</localidad>
<localidad>
<nombre>Espinosa de los Monteros</nombre>
<IdProvincia>10</IdProvincia>
<ID>249</ID>
<Latitud>43.07687</Latitud>
<Longitud>-3.552301</Longitud>
</localidad>
<localidad>
<nombre>Esplús</nombre>
<IdProvincia>24</IdProvincia>
<ID>250</ID>
<Latitud>41.79845</Latitud>
<Longitud>0.2743229</Longitud>
</localidad>
<localidad>
<nombre>Estépar</nombre>
<IdProvincia>10</IdProvincia>
<ID>251</ID>
<Latitud>42.2767</Latitud>
<Longitud>-3.89849</Longitud>
</localidad>
<localidad>
<nombre>Estepona</nombre>
<IdProvincia>33</IdProvincia>
<ID>252</ID>
<Latitud>36.42477</Latitud>
<Longitud>-5.144903</Longitud>
</localidad>
<localidad>
<nombre>Eulate</nombre>
<IdProvincia>36</IdProvincia>
<ID>253</ID>
<Latitud>42.77654</Latitud>
<Longitud>-2.208038</Longitud>
</localidad>
<localidad>
<nombre>Farlete</nombre>
<IdProvincia>52</IdProvincia>
<ID>254</ID>
<Latitud>41.68092</Latitud>
<Longitud>-0.5062719</Longitud>
</localidad>
<localidad>
<nombre>Feria</nombre>
<IdProvincia>8</IdProvincia>
<ID>255</ID>
<Latitud>38.51197</Latitud>
<Longitud>-6.564341</Longitud>
</localidad>
<localidad>
<nombre>Ferreruela</nombre>
<IdProvincia>51</IdProvincia>
<ID>256</ID>
<Latitud>41.76718</Latitud>
<Longitud>-6.071509</Longitud>
</localidad>
<localidad>
<nombre>Figueres</nombre>
<IdProvincia>19</IdProvincia>
<ID>257</ID>
<Latitud>42.2675</Latitud>
<Longitud>2.96084</Longitud>
</localidad>
<localidad>
<nombre>Figueruelas</nombre>
<IdProvincia>52</IdProvincia>
<ID>258</ID>
<Latitud>41.76659</Latitud>
<Longitud>-1.175401</Longitud>
</localidad>
<localidad>
<nombre>Font de la Figuera, la</nombre>
<IdProvincia>48</IdProvincia>
<ID>259</ID>
<Latitud>38.80746</Latitud>
<Longitud>-0.8817337</Longitud>
</localidad>
<localidad>
<nombre>Fraga</nombre>
<IdProvincia>24</IdProvincia>
<ID>260</ID>
<Latitud>41.52243</Latitud>
<Longitud>0.3489263</Longitud>
</localidad>
<localidad>
<nombre>Frasno, El</nombre>
<IdProvincia>52</IdProvincia>
<ID>261</ID>
<Latitud>41.41514</Latitud>
<Longitud>-1.494563</Longitud>
</localidad>
<localidad>
<nombre>Fuencaliente de la Palma</nombre>
<IdProvincia>41</IdProvincia>
<ID>262</ID>
<Latitud>28.4885</Latitud>
<Longitud>-17.84942</Longitud>
</localidad>
<localidad>
<nombre>Fuendetodos</nombre>
<IdProvincia>52</IdProvincia>
<ID>263</ID>
<Latitud>41.34285</Latitud>
<Longitud>-0.9598514</Longitud>
</localidad>
<localidad>
<nombre>Fuengirola</nombre>
<IdProvincia>33</IdProvincia>
<ID>264</ID>
<Latitud>36.53901</Latitud>
<Longitud>-4.624353</Longitud>
</localidad>
<localidad>
<nombre>Fuertescusa</nombre>
<IdProvincia>18</IdProvincia>
<ID>265</ID>
<Latitud>40.47557</Latitud>
<Longitud>-2.17581</Longitud>
</localidad>
<localidad>
<nombre>Fustiñana</nombre>
<IdProvincia>36</IdProvincia>
<ID>266</ID>
<Latitud>42.0199</Latitud>
<Longitud>-1.486246</Longitud>
</localidad>
<localidad>
<nombre>Galdakao</nombre>
<IdProvincia>50</IdProvincia>
<ID>267</ID>
<Latitud>43.23056</Latitud>
<Longitud>-2.845833</Longitud>
</localidad>
<localidad>
<nombre>Gallur</nombre>
<IdProvincia>52</IdProvincia>
<ID>268</ID>
<Latitud>41.86982</Latitud>
<Longitud>-1.31786</Longitud>
</localidad>
<localidad>
<nombre>Gastor, El</nombre>
<IdProvincia>12</IdProvincia>
<ID>269</ID>
<Latitud>36.85509</Latitud>
<Longitud>-5.323623</Longitud>
</localidad>
<localidad>
<nombre>Gea de Albarracín</nombre>
<IdProvincia>46</IdProvincia>
<ID>270</ID>
<Latitud>40.41083</Latitud>
<Longitud>-1.34803</Longitud>
</localidad>
<localidad>
<nombre>Gernika-Lumo</nombre>
<IdProvincia>50</IdProvincia>
<ID>271</ID>
<Latitud>43.31707</Latitud>
<Longitud>-2.678975</Longitud>
</localidad>
<localidad>
<nombre>Getafe</nombre>
<IdProvincia>32</IdProvincia>
<ID>272</ID>
<Latitud>40.30498</Latitud>
<Longitud>-3.732677</Longitud>
</localidad>
<localidad>
<nombre>Gijón</nombre>
<IdProvincia>6</IdProvincia>
<ID>273</ID>
<Latitud>43.54526</Latitud>
<Longitud>-5.661926</Longitud>
</localidad>
<localidad>
<nombre>Ginebrosa, La</nombre>
<IdProvincia>46</IdProvincia>
<ID>274</ID>
<Latitud>40.87043</Latitud>
<Longitud>-0.1334234</Longitud>
</localidad>
<localidad>
<nombre>Girona</nombre>
<IdProvincia>19</IdProvincia>
<ID>275</ID>
<Latitud>41.9818</Latitud>
<Longitud>2.8237</Longitud>
</localidad>
<localidad>
<nombre>Gordaliza del Pino</nombre>
<IdProvincia>29</IdProvincia>
<ID>276</ID>
<Latitud>42.34362</Latitud>
<Longitud>-5.157395</Longitud>
</localidad>
<localidad>
<nombre>Gotor</nombre>
<IdProvincia>52</IdProvincia>
<ID>277</ID>
<Latitud>41.54535</Latitud>
<Longitud>-1.650069</Longitud>
</localidad>
<localidad>
<nombre>Gozón</nombre>
<IdProvincia>6</IdProvincia>
<ID>278</ID>
<Latitud>43.60997</Latitud>
<Longitud>-5.789972</Longitud>
</localidad>
<localidad>
<nombre>Grado</nombre>
<IdProvincia>6</IdProvincia>
<ID>279</ID>
<Latitud>43.38855</Latitud>
<Longitud>-6.06973</Longitud>
</localidad>
<localidad>
<nombre>Granada</nombre>
<IdProvincia>20</IdProvincia>
<ID>280</ID>
<Latitud>37.17649</Latitud>
<Longitud>-3.597929</Longitud>
</localidad>
<localidad>
<nombre>Granada de Río-Tinto, La</nombre>
<IdProvincia>23</IdProvincia>
<ID>281</ID>
<Latitud>37.23156</Latitud>
<Longitud>-6.91823</Longitud>
</localidad>
<localidad>
<nombre>Grandas de Salime</nombre>
<IdProvincia>6</IdProvincia>
<ID>282</ID>
<Latitud>43.21853</Latitud>
<Longitud>-6.876276</Longitud>
</localidad>
<localidad>
<nombre>Grañén</nombre>
<IdProvincia>24</IdProvincia>
<ID>283</ID>
<Latitud>41.93995</Latitud>
<Longitud>-0.3692021</Longitud>
</localidad>
<localidad>
<nombre>Graus</nombre>
<IdProvincia>24</IdProvincia>
<ID>284</ID>
<Latitud>42.19274</Latitud>
<Longitud>0.3389097</Longitud>
</localidad>
<localidad>
<nombre>Grazalema</nombre>
<IdProvincia>12</IdProvincia>
<ID>285</ID>
<Latitud>36.75837</Latitud>
<Longitud>-5.366071</Longitud>
</localidad>
<localidad>
<nombre>Guadalajara</nombre>
<IdProvincia>21</IdProvincia>
<ID>286</ID>
<Latitud>40.62981</Latitud>
<Longitud>-3.166493</Longitud>
</localidad>
<localidad>
<nombre>Gualchos</nombre>
<IdProvincia>20</IdProvincia>
<ID>287</ID>
<Latitud>36.74357</Latitud>
<Longitud>-3.389869</Longitud>
</localidad>
<localidad>
<nombre>Guillena</nombre>
<IdProvincia>43</IdProvincia>
<ID>288</ID>
<Latitud>37.53902</Latitud>
<Longitud>-6.052268</Longitud>
</localidad>
<localidad>
<nombre>Gurrea de Gállego</nombre>
<IdProvincia>24</IdProvincia>
<ID>289</ID>
<Latitud>42.01335</Latitud>
<Longitud>-0.7621484</Longitud>
</localidad>
<localidad>
<nombre>Herrera</nombre>
<IdProvincia>43</IdProvincia>
<ID>290</ID>
<Latitud>37.36176</Latitud>
<Longitud>-4.850014</Longitud>
</localidad>
<localidad>
<nombre>Herrera de Pisuerga</nombre>
<IdProvincia>38</IdProvincia>
<ID>291</ID>
<Latitud>42.59454</Latitud>
<Longitud>-4.33076</Longitud>
</localidad>
<localidad>
<nombre>Híjar</nombre>
<IdProvincia>46</IdProvincia>
<ID>292</ID>
<Latitud>41.17572</Latitud>
<Longitud>-0.451008</Longitud>
</localidad>
<localidad>
<nombre>Hinojos</nombre>
<IdProvincia>23</IdProvincia>
<ID>293</ID>
<Latitud>37.29273</Latitud>
<Longitud>-6.376253</Longitud>
</localidad>
<localidad>
<nombre>Huélamo</nombre>
<IdProvincia>18</IdProvincia>
<ID>294</ID>
<Latitud>40.2775</Latitud>
<Longitud>-1.811318</Longitud>
</localidad>
<localidad>
<nombre>Huelva</nombre>
<IdProvincia>23</IdProvincia>
<ID>295</ID>
<Latitud>37.2571</Latitud>
<Longitud>-6.949555</Longitud>
</localidad>
<localidad>
<nombre>Huerto</nombre>
<IdProvincia>24</IdProvincia>
<ID>296</ID>
<Latitud>41.93188</Latitud>
<Longitud>-0.1666296</Longitud>
</localidad>
<localidad>
<nombre>Huesca</nombre>
<IdProvincia>24</IdProvincia>
<ID>297</ID>
<Latitud>42.1401</Latitud>
<Longitud>-0.408898</Longitud>
</localidad>
<localidad>
<nombre>Ibias</nombre>
<IdProvincia>6</IdProvincia>
<ID>298</ID>
<Latitud>43.03333</Latitud>
<Longitud>-6.866667</Longitud>
</localidad>
<localidad>
<nombre>Illora</nombre>
<IdProvincia>20</IdProvincia>
<ID>299</ID>
<Latitud>37.28843</Latitud>
<Longitud>-3.879782</Longitud>
</localidad>
<localidad>
<nombre>Irun</nombre>
<IdProvincia>22</IdProvincia>
<ID>300</ID>
<Latitud>43.33823</Latitud>
<Longitud>-1.789272</Longitud>
</localidad>
<localidad>
<nombre>Izagre</nombre>
<IdProvincia>29</IdProvincia>
<ID>301</ID>
<Latitud>42.22424</Latitud>
<Longitud>-5.257293</Longitud>
</localidad>
<localidad>
<nombre>Jaca</nombre>
<IdProvincia>24</IdProvincia>
<ID>302</ID>
<Latitud>42.57101</Latitud>
<Longitud>-0.5494531</Longitud>
</localidad>
<localidad>
<nombre>Jaén</nombre>
<IdProvincia>26</IdProvincia>
<ID>303</ID>
<Latitud>37.76574</Latitud>
<Longitud>-3.789518</Longitud>
</localidad>
<localidad>
<nombre>Jarque</nombre>
<IdProvincia>52</IdProvincia>
<ID>304</ID>
<Latitud>41.55592</Latitud>
<Longitud>-1.678478</Longitud>
</localidad>
<localidad>
<nombre>Jerez de la Frontera</nombre>
<IdProvincia>12</IdProvincia>
<ID>305</ID>
<Latitud>36.68656</Latitud>
<Longitud>-6.137173</Longitud>
</localidad>
<localidad>
<nombre>Jimena de la Frontera</nombre>
<IdProvincia>12</IdProvincia>
<ID>306</ID>
<Latitud>36.43404</Latitud>
<Longitud>-5.453479</Longitud>
</localidad>
<localidad>
<nombre>Jimera de Líbar</nombre>
<IdProvincia>33</IdProvincia>
<ID>307</ID>
<Latitud>36.65202</Latitud>
<Longitud>-5.273455</Longitud>
</localidad>
<localidad>
<nombre>Kuartango</nombre>
<IdProvincia>2</IdProvincia>
<ID>308</ID>
<Latitud>42.87139</Latitud>
<Longitud>-2.885556</Longitud>
</localidad>
<localidad>
<nombre>Langa del Castillo</nombre>
<IdProvincia>52</IdProvincia>
<ID>309</ID>
<Latitud>41.21275</Latitud>
<Longitud>-1.398226</Longitud>
</localidad>
<localidad>
<nombre>Langreo</nombre>
<IdProvincia>6</IdProvincia>
<ID>310</ID>
<Latitud>43.29636</Latitud>
<Longitud>-5.682541</Longitud>
</localidad>
<localidad>
<nombre>Lanjarón</nombre>
<IdProvincia>20</IdProvincia>
<ID>311</ID>
<Latitud>36.91806</Latitud>
<Longitud>-3.480488</Longitud>
</localidad>
<localidad>
<nombre>Laviana</nombre>
<IdProvincia>6</IdProvincia>
<ID>312</ID>
<Latitud>43.23576</Latitud>
<Longitud>-5.55625</Longitud>
</localidad>
<localidad>
<nombre>Lécera</nombre>
<IdProvincia>52</IdProvincia>
<ID>313</ID>
<Latitud>41.20604</Latitud>
<Longitud>-0.7099051</Longitud>
</localidad>
<localidad>
<nombre>Leciñena</nombre>
<IdProvincia>52</IdProvincia>
<ID>314</ID>
<Latitud>41.79892</Latitud>
<Longitud>-0.6105711</Longitud>
</localidad>
<localidad>
<nombre>Lecrín</nombre>
<IdProvincia>20</IdProvincia>
<ID>315</ID>
<Latitud>36.9477</Latitud>
<Longitud>-3.550382</Longitud>
</localidad>
<localidad>
<nombre>Legutiano</nombre>
<IdProvincia>2</IdProvincia>
<ID>316</ID>
<Latitud>42.97782</Latitud>
<Longitud>-2.642724</Longitud>
</localidad>
<localidad>
<nombre>Lemoa</nombre>
<IdProvincia>50</IdProvincia>
<ID>317</ID>
<Latitud>43.20876</Latitud>
<Longitud>-2.774117</Longitud>
</localidad>
<localidad>
<nombre>Lena</nombre>
<IdProvincia>6</IdProvincia>
<ID>318</ID>
<Latitud>43.15833</Latitud>
<Longitud>-5.829167</Longitud>
</localidad>
<localidad>
<nombre>León</nombre>
<IdProvincia>29</IdProvincia>
<ID>319</ID>
<Latitud>42.59988</Latitud>
<Longitud>-5.571752</Longitud>
</localidad>
<localidad>
<nombre>Llanera</nombre>
<IdProvincia>6</IdProvincia>
<ID>320</ID>
<Latitud>43.46667</Latitud>
<Longitud>-5.933333</Longitud>
</localidad>
<localidad>
<nombre>Llanes</nombre>
<IdProvincia>6</IdProvincia>
<ID>321</ID>
<Latitud>43.41953</Latitud>
<Longitud>-4.750914</Longitud>
</localidad>
<localidad>
<nombre>Lleida</nombre>
<IdProvincia>30</IdProvincia>
<ID>322</ID>
<Latitud>41.61415</Latitud>
<Longitud>0.6257825</Longitud>
</localidad>
<localidad>
<nombre>Loarre</nombre>
<IdProvincia>24</IdProvincia>
<ID>323</ID>
<Latitud>42.31464</Latitud>
<Longitud>-0.6249158</Longitud>
</localidad>
<localidad>
<nombre>Logroño</nombre>
<IdProvincia>27</IdProvincia>
<ID>324</ID>
<Latitud>42.46577</Latitud>
<Longitud>-2.449995</Longitud>
</localidad>
<localidad>
<nombre>Loja</nombre>
<IdProvincia>20</IdProvincia>
<ID>325</ID>
<Latitud>37.16884</Latitud>
<Longitud>-4.151471</Longitud>
</localidad>
<localidad>
<nombre>Loporzano</nombre>
<IdProvincia>24</IdProvincia>
<ID>326</ID>
<Latitud>42.16131</Latitud>
<Longitud>-0.324034</Longitud>
</localidad>
<localidad>
<nombre>Lora de Estepa</nombre>
<IdProvincia>43</IdProvincia>
<ID>327</ID>
<Latitud>37.26869</Latitud>
<Longitud>-4.827815</Longitud>
</localidad>
<localidad>
<nombre>Lucena del Puerto</nombre>
<IdProvincia>23</IdProvincia>
<ID>328</ID>
<Latitud>37.30394</Latitud>
<Longitud>-6.730086</Longitud>
</localidad>
<localidad>
<nombre>Luisiana, La</nombre>
<IdProvincia>43</IdProvincia>
<ID>329</ID>
<Latitud>37.52613</Latitud>
<Longitud>-5.248721</Longitud>
</localidad>
<localidad>
<nombre>Lupiñén-Ortilla</nombre>
<IdProvincia>24</IdProvincia>
<ID>330</ID>
<Latitud>42.17545</Latitud>
<Longitud>-0.5807649</Longitud>
</localidad>
<localidad>
<nombre>Madrid</nombre>
<IdProvincia>32</IdProvincia>
<ID>331</ID>
<Latitud>40.41669</Latitud>
<Longitud>-3.700346</Longitud>
</localidad>
<localidad>
<nombre>Madroño, El</nombre>
<IdProvincia>43</IdProvincia>
<ID>332</ID>
<Latitud>37.64548</Latitud>
<Longitud>-6.511699</Longitud>
</localidad>
<localidad>
<nombre>Maella</nombre>
<IdProvincia>52</IdProvincia>
<ID>333</ID>
<Latitud>41.12497</Latitud>
<Longitud>0.1398754</Longitud>
</localidad>
<localidad>
<nombre>Magallón</nombre>
<IdProvincia>52</IdProvincia>
<ID>334</ID>
<Latitud>41.83311</Latitud>
<Longitud>-1.461193</Longitud>
</localidad>
<localidad>
<nombre>Málaga</nombre>
<IdProvincia>33</IdProvincia>
<ID>335</ID>
<Latitud>36.71965</Latitud>
<Longitud>-4.420019</Longitud>
</localidad>
<localidad>
<nombre>Mara</nombre>
<IdProvincia>52</IdProvincia>
<ID>336</ID>
<Latitud>41.28913</Latitud>
<Longitud>-1.517676</Longitud>
</localidad>
<localidad>
<nombre>María de Huerva</nombre>
<IdProvincia>52</IdProvincia>
<ID>337</ID>
<Latitud>41.53905</Latitud>
<Longitud>-0.9935882</Longitud>
</localidad>
<localidad>
<nombre>Marinaleda</nombre>
<IdProvincia>43</IdProvincia>
<ID>338</ID>
<Latitud>37.37473</Latitud>
<Longitud>-4.953792</Longitud>
</localidad>
<localidad>
<nombre>Martín de la Jara</nombre>
<IdProvincia>43</IdProvincia>
<ID>339</ID>
<Latitud>37.10655</Latitud>
<Longitud>-4.962173</Longitud>
</localidad>
<localidad>
<nombre>Matallana de Torío</nombre>
<IdProvincia>29</IdProvincia>
<ID>340</ID>
<Latitud>42.84385</Latitud>
<Longitud>-5.498035</Longitud>
</localidad>
<localidad>
<nombre>Mediana de Aragón</nombre>
<IdProvincia>52</IdProvincia>
<ID>341</ID>
<Latitud>41.46745</Latitud>
<Longitud>-0.7053687</Longitud>
</localidad>
<localidad>
<nombre>Mediona</nombre>
<IdProvincia>9</IdProvincia>
<ID>342</ID>
<Latitud>41.48333</Latitud>
<Longitud>1.616667</Longitud>
</localidad>
<localidad>
<nombre>Merindad de Montija</nombre>
<IdProvincia>10</IdProvincia>
<ID>343</ID>
<Latitud>43.09207</Latitud>
<Longitud>-3.43402</Longitud>
</localidad>
<localidad>
<nombre>Merindad de Valdivielso</nombre>
<IdProvincia>10</IdProvincia>
<ID>344</ID>
<Latitud>42.82</Latitud>
<Longitud>-3.536</Longitud>
</localidad>
<localidad>
<nombre>Mesones de Isuela</nombre>
<IdProvincia>52</IdProvincia>
<ID>345</ID>
<Latitud>41.55116</Latitud>
<Longitud>-1.537185</Longitud>
</localidad>
<localidad>
<nombre>Miajadas</nombre>
<IdProvincia>11</IdProvincia>
<ID>346</ID>
<Latitud>39.15122</Latitud>
<Longitud>-5.907261</Longitud>
</localidad>
<localidad>
<nombre>Mieres</nombre>
<IdProvincia>6</IdProvincia>
<ID>347</ID>
<Latitud>43.25179</Latitud>
<Longitud>-5.776198</Longitud>
</localidad>
<localidad>
<nombre>Mirandilla</nombre>
<IdProvincia>8</IdProvincia>
<ID>348</ID>
<Latitud>39.0017</Latitud>
<Longitud>-6.289864</Longitud>
</localidad>
<localidad>
<nombre>Molinos</nombre>
<IdProvincia>46</IdProvincia>
<ID>349</ID>
<Latitud>40.81963</Latitud>
<Longitud>-0.450496</Longitud>
</localidad>
<localidad>
<nombre>Mondariz</nombre>
<IdProvincia>39</IdProvincia>
<ID>350</ID>
<Latitud>42.23425</Latitud>
<Longitud>-8.455334</Longitud>
</localidad>
<localidad>
<nombre>Monreal</nombre>
<IdProvincia>36</IdProvincia>
<ID>351</ID>
<Latitud>42.70464</Latitud>
<Longitud>-1.506409</Longitud>
</localidad>
<localidad>
<nombre>Monreal de Ariza</nombre>
<IdProvincia>52</IdProvincia>
<ID>352</ID>
<Latitud>41.29025</Latitud>
<Longitud>-2.110441</Longitud>
</localidad>
<localidad>
<nombre>Monreal del Campo</nombre>
<IdProvincia>46</IdProvincia>
<ID>353</ID>
<Latitud>40.7903</Latitud>
<Longitud>-1.354099</Longitud>
</localidad>
<localidad>
<nombre>Monroyo</nombre>
<IdProvincia>46</IdProvincia>
<ID>354</ID>
<Latitud>40.7874</Latitud>
<Longitud>-0.0317478</Longitud>
</localidad>
<localidad>
<nombre>Montcada i Reixac</nombre>
<IdProvincia>9</IdProvincia>
<ID>355</ID>
<Latitud>41.48231</Latitud>
<Longitud>2.188504</Longitud>
</localidad>
<localidad>
<nombre>Montija</nombre>
<IdProvincia>24</IdProvincia>
<ID>356</ID>
<Latitud>41.822712</Latitud>
<Longitud>-0.002749</Longitud>
</localidad>
<localidad>
<nombre>Monturque</nombre>
<IdProvincia>17</IdProvincia>
<ID>357</ID>
<Latitud>37.47332</Latitud>
<Longitud>-4.581713</Longitud>
</localidad>
<localidad>
<nombre>Monzón</nombre>
<IdProvincia>24</IdProvincia>
<ID>358</ID>
<Latitud>41.91031</Latitud>
<Longitud>0.1946406</Longitud>
</localidad>
<localidad>
<nombre>Morata de Jalón</nombre>
<IdProvincia>52</IdProvincia>
<ID>359</ID>
<Latitud>41.47309</Latitud>
<Longitud>-1.473444</Longitud>
</localidad>
<localidad>
<nombre>Morcín</nombre>
<IdProvincia>6</IdProvincia>
<ID>360</ID>
<Latitud>43.28333</Latitud>
<Longitud>-5.883333</Longitud>
</localidad>
<localidad>
<nombre>Morón de la Frontera</nombre>
<IdProvincia>43</IdProvincia>
<ID>361</ID>
<Latitud>37.1223</Latitud>
<Longitud>-5.451869</Longitud>
</localidad>
<localidad>
<nombre>Moyuela</nombre>
<IdProvincia>52</IdProvincia>
<ID>362</ID>
<Latitud>41.1285</Latitud>
<Longitud>-0.9221865</Longitud>
</localidad>
<localidad>
<nombre>Muela, La</nombre>
<IdProvincia>52</IdProvincia>
<ID>363</ID>
<Latitud>41.58038</Latitud>
<Longitud>-1.119097</Longitud>
</localidad>
<localidad>
<nombre>Muniesa</nombre>
<IdProvincia>46</IdProvincia>
<ID>364</ID>
<Latitud>41.03386</Latitud>
<Longitud>-0.8120759</Longitud>
</localidad>
<localidad>
<nombre>Murillo de Gállego</nombre>
<IdProvincia>52</IdProvincia>
<ID>365</ID>
<Latitud>42.33651</Latitud>
<Longitud>-0.7540914</Longitud>
</localidad>
<localidad>
<nombre>Mutriku</nombre>
<IdProvincia>22</IdProvincia>
<ID>366</ID>
<Latitud>43.30707</Latitud>
<Longitud>-2.385083</Longitud>
</localidad>
<localidad>
<nombre>Muxika</nombre>
<IdProvincia>50</IdProvincia>
<ID>367</ID>
<Latitud>43.28967</Latitud>
<Longitud>-2.692941</Longitud>
</localidad>
<localidad>
<nombre>Navalcán</nombre>
<IdProvincia>47</IdProvincia>
<ID>368</ID>
<Latitud>40.06983</Latitud>
<Longitud>-5.092264</Longitud>
</localidad>
<localidad>
<nombre>Navia</nombre>
<IdProvincia>6</IdProvincia>
<ID>369</ID>
<Latitud>43.5401</Latitud>
<Longitud>-6.723192</Longitud>
</localidad>
<localidad>
<nombre>Noreña</nombre>
<IdProvincia>6</IdProvincia>
<ID>370</ID>
<Latitud>43.39547</Latitud>
<Longitud>-5.706471</Longitud>
</localidad>
<localidad>
<nombre>Novallas</nombre>
<IdProvincia>52</IdProvincia>
<ID>371</ID>
<Latitud>41.94646</Latitud>
<Longitud>-1.693985</Longitud>
</localidad>
<localidad>
<nombre>Novillas</nombre>
<IdProvincia>52</IdProvincia>
<ID>372</ID>
<Latitud>41.93424</Latitud>
<Longitud>-1.392918</Longitud>
</localidad>
<localidad>
<nombre>Oiartzun</nombre>
<IdProvincia>22</IdProvincia>
<ID>373</ID>
<Latitud>43.29928</Latitud>
<Longitud>-1.857874</Longitud>
</localidad>
<localidad>
<nombre>Ojos Negros</nombre>
<IdProvincia>46</IdProvincia>
<ID>374</ID>
<Latitud>40.73796</Latitud>
<Longitud>-1.500031</Longitud>
</localidad>
<localidad>
<nombre>Olmos, Los</nombre>
<IdProvincia>46</IdProvincia>
<ID>375</ID>
<Latitud>40.87758</Latitud>
<Longitud>-0.4884439</Longitud>
</localidad>
<localidad>
<nombre>Olvera</nombre>
<IdProvincia>12</IdProvincia>
<ID>376</ID>
<Latitud>36.93525</Latitud>
<Longitud>-5.267688</Longitud>
</localidad>
<localidad>
<nombre>Orduña</nombre>
<IdProvincia>50</IdProvincia>
<ID>377</ID>
<Latitud>42.99445</Latitud>
<Longitud>-3.009623</Longitud>
</localidad>
<localidad>
<nombre>Órgiva</nombre>
<IdProvincia>20</IdProvincia>
<ID>378</ID>
<Latitud>36.90224</Latitud>
<Longitud>-3.42399</Longitud>
</localidad>
<localidad>
<nombre>Oropesa</nombre>
<IdProvincia>47</IdProvincia>
<ID>379</ID>
<Latitud>39.91914</Latitud>
<Longitud>-5.173415</Longitud>
</localidad>
<localidad>
<nombre>Osuna</nombre>
<IdProvincia>43</IdProvincia>
<ID>380</ID>
<Latitud>37.23697</Latitud>
<Longitud>-5.102748</Longitud>
</localidad>
<localidad>
<nombre>Otxandio</nombre>
<IdProvincia>50</IdProvincia>
<ID>381</ID>
<Latitud>43.04045</Latitud>
<Longitud>-2.654584</Longitud>
</localidad>
<localidad>
<nombre>Oviedo</nombre>
<IdProvincia>6</IdProvincia>
<ID>382</ID>
<Latitud>43.36026</Latitud>
<Longitud>-5.844759</Longitud>
</localidad>
<localidad>
<nombre>Padul</nombre>
<IdProvincia>20</IdProvincia>
<ID>383</ID>
<Latitud>37.02432</Latitud>
<Longitud>-3.626719</Longitud>
</localidad>
<localidad>
<nombre>Palencia</nombre>
<IdProvincia>38</IdProvincia>
<ID>384</ID>
<Latitud>42.01246</Latitud>
<Longitud>-4.531175</Longitud>
</localidad>
<localidad>
<nombre>Palomares del Río</nombre>
<IdProvincia>43</IdProvincia>
<ID>385</ID>
<Latitud>37.32256</Latitud>
<Longitud>-6.057716</Longitud>
</localidad>
<localidad>
<nombre>Pardines</nombre>
<IdProvincia>19</IdProvincia>
<ID>386</ID>
<Latitud>42.31271</Latitud>
<Longitud>2.213113</Longitud>
</localidad>
<localidad>
<nombre>Parres</nombre>
<IdProvincia>6</IdProvincia>
<ID>387</ID>
<Latitud>43.37</Latitud>
<Longitud>-5.19</Longitud>
</localidad>
<localidad>
<nombre>Paterna</nombre>
<IdProvincia>48</IdProvincia>
<ID>388</ID>
<Latitud>39.50206</Latitud>
<Longitud>-0.4405986</Longitud>
</localidad>
<localidad>
<nombre>Pedrola</nombre>
<IdProvincia>52</IdProvincia>
<ID>389</ID>
<Latitud>41.79163</Latitud>
<Longitud>-1.214005</Longitud>
</localidad>
<localidad>
<nombre>Peñalba</nombre>
<IdProvincia>24</IdProvincia>
<ID>390</ID>
<Latitud>41.50001</Latitud>
<Longitud>-0.0384445</Longitud>
</localidad>
<localidad>
<nombre>Peñas de Riglos, Las</nombre>
<IdProvincia>24</IdProvincia>
<ID>391</ID>
<Latitud>42.34886</Latitud>
<Longitud>-0.7268404</Longitud>
</localidad>
<localidad>
<nombre>Pepino</nombre>
<IdProvincia>47</IdProvincia>
<ID>392</ID>
<Latitud>40.03209</Latitud>
<Longitud>-4.802787</Longitud>
</localidad>
<localidad>
<nombre>Peralta</nombre>
<IdProvincia>36</IdProvincia>
<ID>393</ID>
<Latitud>42.33884</Latitud>
<Longitud>-1.797463</Longitud>
</localidad>
<localidad>
<nombre>Peralta de Calasanz</nombre>
<IdProvincia>24</IdProvincia>
<ID>394</ID>
<Latitud>42.01811</Latitud>
<Longitud>0.3936722</Longitud>
</localidad>
<localidad>
<nombre>Perdiguera</nombre>
<IdProvincia>52</IdProvincia>
<ID>395</ID>
<Latitud>41.75367</Latitud>
<Longitud>-0.6316877</Longitud>
</localidad>
<localidad>
<nombre>Piloña</nombre>
<IdProvincia>6</IdProvincia>
<ID>396</ID>
<Latitud>43.351</Latitud>
<Longitud>-5.363</Longitud>
</localidad>
<localidad>
<nombre>Pina de Ebro</nombre>
<IdProvincia>52</IdProvincia>
<ID>397</ID>
<Latitud>41.48727</Latitud>
<Longitud>-0.5319692</Longitud>
</localidad>
<localidad>
<nombre>Pinar, El</nombre>
<IdProvincia>20</IdProvincia>
<ID>398</ID>
<Latitud>37.44337</Latitud>
<Longitud>-3.439418</Longitud>
</localidad>
<localidad>
<nombre>Pinilla del Valle</nombre>
<IdProvincia>32</IdProvincia>
<ID>399</ID>
<Latitud>40.9262</Latitud>
<Longitud>-3.819392</Longitud>
</localidad>
<localidad>
<nombre>Pintanos, Los</nombre>
<IdProvincia>52</IdProvincia>
<ID>400</ID>
<Latitud>42.52914</Latitud>
<Longitud>-1.022003</Longitud>
</localidad>
<localidad>
<nombre>Pinto</nombre>
<IdProvincia>32</IdProvincia>
<ID>401</ID>
<Latitud>40.24454</Latitud>
<Longitud>-3.696013</Longitud>
</localidad>
<localidad>
<nombre>Polopos</nombre>
<IdProvincia>20</IdProvincia>
<ID>402</ID>
<Latitud>36.79553</Latitud>
<Longitud>-3.297135</Longitud>
</localidad>
<localidad>
<nombre>Ponferrada</nombre>
<IdProvincia>29</IdProvincia>
<ID>403</ID>
<Latitud>42.54633</Latitud>
<Longitud>-6.590833</Longitud>
</localidad>
<localidad>
<nombre>Ponga</nombre>
<IdProvincia>6</IdProvincia>
<ID>404</ID>
<Latitud>43.19</Latitud>
<Longitud>-5.16</Longitud>
</localidad>
<localidad>
<nombre>Prado del Rey</nombre>
<IdProvincia>12</IdProvincia>
<ID>405</ID>
<Latitud>36.78968</Latitud>
<Longitud>-5.555545</Longitud>
</localidad>
<localidad>
<nombre>Pravia</nombre>
<IdProvincia>6</IdProvincia>
<ID>406</ID>
<Latitud>43.49004</Latitud>
<Longitud>-6.112017</Longitud>
</localidad>
<localidad>
<nombre>Priaranza del Bierzo</nombre>
<IdProvincia>29</IdProvincia>
<ID>407</ID>
<Latitud>42.51058</Latitud>
<Longitud>-6.668278</Longitud>
</localidad>
<localidad>
<nombre>Proaza</nombre>
<IdProvincia>6</IdProvincia>
<ID>408</ID>
<Latitud>43.25117</Latitud>
<Longitud>-6.015672</Longitud>
</localidad>
<localidad>
<nombre>Pruna</nombre>
<IdProvincia>43</IdProvincia>
<ID>409</ID>
<Latitud>36.97364</Latitud>
<Longitud>-5.222943</Longitud>
</localidad>
<localidad>
<nombre>Puebla de Albortón</nombre>
<IdProvincia>52</IdProvincia>
<ID>410</ID>
<Latitud>41.38388</Latitud>
<Longitud>-0.8539658</Longitud>
</localidad>
<localidad>
<nombre>Puebla de Cazalla, La</nombre>
<IdProvincia>43</IdProvincia>
<ID>411</ID>
<Latitud>37.22441</Latitud>
<Longitud>-5.31227</Longitud>
</localidad>
<localidad>
<nombre>Puebla de Híjar, La</nombre>
<IdProvincia>46</IdProvincia>
<ID>412</ID>
<Latitud>41.2209</Latitud>
<Longitud>-0.443926</Longitud>
</localidad>
<localidad>
<nombre>Puebla de los Infantes, La</nombre>
<IdProvincia>43</IdProvincia>
<ID>413</ID>
<Latitud>37.77852</Latitud>
<Longitud>-5.388995</Longitud>
</localidad>
<localidad>
<nombre>Puebla de Valverde, La</nombre>
<IdProvincia>46</IdProvincia>
<ID>414</ID>
<Latitud>40.2247</Latitud>
<Longitud>-0.9297862</Longitud>
</localidad>
<localidad>
<nombre>Pueyo de Araguás, El</nombre>
<IdProvincia>24</IdProvincia>
<ID>415</ID>
<Latitud>42.44161</Latitud>
<Longitud>0.1618542</Longitud>
</localidad>
<localidad>
<nombre>Quintana de la Serena</nombre>
<IdProvincia>8</IdProvincia>
<ID>416</ID>
<Latitud>38.74163</Latitud>
<Longitud>-5.672316</Longitud>
</localidad>
<localidad>
<nombre>Quintanilla de la Mata</nombre>
<IdProvincia>10</IdProvincia>
<ID>417</ID>
<Latitud>41.98862</Latitud>
<Longitud>-3.76779</Longitud>
</localidad>
<localidad>
<nombre>Quirós</nombre>
<IdProvincia>6</IdProvincia>
<ID>418</ID>
<Latitud>43.15</Latitud>
<Longitud>-5.966667</Longitud>
</localidad>
<localidad>
<nombre>Rascafría</nombre>
<IdProvincia>32</IdProvincia>
<ID>419</ID>
<Latitud>40.90381</Latitud>
<Longitud>-3.879398</Longitud>
</localidad>
<localidad>
<nombre>Real de la Jara, El</nombre>
<IdProvincia>43</IdProvincia>
<ID>420</ID>
<Latitud>37.95061</Latitud>
<Longitud>-6.1559</Longitud>
</localidad>
<localidad>
<nombre>Regueras, Las</nombre>
<IdProvincia>6</IdProvincia>
<ID>421</ID>
<Latitud>43.41374</Latitud>
<Longitud>-5.970489</Longitud>
</localidad>
<localidad>
<nombre>Reíllo</nombre>
<IdProvincia>18</IdProvincia>
<ID>422</ID>
<Latitud>39.90438</Latitud>
<Longitud>-1.873556</Longitud>
</localidad>
<localidad>
<nombre>Reus</nombre>
<IdProvincia>45</IdProvincia>
<ID>423</ID>
<Latitud>41.15482</Latitud>
<Longitud>1.108676</Longitud>
</localidad>
<localidad>
<nombre>Rialp</nombre>
<IdProvincia>30</IdProvincia>
<ID>424</ID>
<Latitud>42.44348</Latitud>
<Longitud>1.135177</Longitud>
</localidad>
<localidad>
<nombre>Riaza</nombre>
<IdProvincia>42</IdProvincia>
<ID>425</ID>
<Latitud>41.28003</Latitud>
<Longitud>-3.477578</Longitud>
</localidad>
<localidad>
<nombre>Ricla</nombre>
<IdProvincia>52</IdProvincia>
<ID>426</ID>
<Latitud>41.50775</Latitud>
<Longitud>-1.402532</Longitud>
</localidad>
<localidad>
<nombre>Rillo</nombre>
<IdProvincia>46</IdProvincia>
<ID>427</ID>
<Latitud>40.72252</Latitud>
<Longitud>-0.9954608</Longitud>
</localidad>
<localidad>
<nombre>Rinconada, La</nombre>
<IdProvincia>43</IdProvincia>
<ID>428</ID>
<Latitud>37.4878</Latitud>
<Longitud>-5.979309</Longitud>
</localidad>
<localidad>
<nombre>Roda de Andalucía, La</nombre>
<IdProvincia>43</IdProvincia>
<ID>429</ID>
<Latitud>37.20099</Latitud>
<Longitud>-4.779276</Longitud>
</localidad>
<localidad>
<nombre>Roda, La</nombre>
<IdProvincia>3</IdProvincia>
<ID>430</ID>
<Latitud>39.0013</Latitud>
<Longitud>-1.868604</Longitud>
</localidad>
<localidad>
<nombre>Ronda</nombre>
<IdProvincia>33</IdProvincia>
<ID>431</ID>
<Latitud>36.74196</Latitud>
<Longitud>-5.166412</Longitud>
</localidad>
<localidad>
<nombre>Rosal de la Frontera</nombre>
<IdProvincia>23</IdProvincia>
<ID>432</ID>
<Latitud>37.9678</Latitud>
<Longitud>-7.220527</Longitud>
</localidad>
<localidad>
<nombre>Rubiales</nombre>
<IdProvincia>46</IdProvincia>
<ID>433</ID>
<Latitud>40.27658</Latitud>
<Longitud>-1.269214</Longitud>
</localidad>
<localidad>
<nombre>Rubio, El</nombre>
<IdProvincia>43</IdProvincia>
<ID>434</ID>
<Latitud>37.3557</Latitud>
<Longitud>-4.988925</Longitud>
</localidad>
<localidad>
<nombre>Rueda de Jalón</nombre>
<IdProvincia>52</IdProvincia>
<ID>435</ID>
<Latitud>41.6342</Latitud>
<Longitud>-1.27299</Longitud>
</localidad>
<localidad>
<nombre>Sabiñánigo</nombre>
<IdProvincia>24</IdProvincia>
<ID>436</ID>
<Latitud>42.5197</Latitud>
<Longitud>-0.3650786</Longitud>
</localidad>
<localidad>
<nombre>Salamanca</nombre>
<IdProvincia>40</IdProvincia>
<ID>437</ID>
<Latitud>40.96497</Latitud>
<Longitud>-5.663047</Longitud>
</localidad>
<localidad>
<nombre>Aranga</nombre>
<IdProvincia>1</IdProvincia>
<ID>438</ID>
<Latitud>43.23333</Latitud>
<Longitud>-8.016667</Longitud>
</localidad>
<localidad>
<nombre>Capela, A</nombre>
<IdProvincia>1</IdProvincia>
<ID>439</ID>
<Latitud>42.69293</Latitud>
<Longitud>-8.792709</Longitud>
</localidad>
<localidad>
<nombre>Ortoño</nombre>
<IdProvincia>1</IdProvincia>
<ID>440</ID>
<Latitud>42.8469375</Latitud>
<Longitud>-8.6436974</Longitud>
</localidad>
<localidad>
<nombre>Pino, O</nombre>
<IdProvincia>1</IdProvincia>
<ID>441</ID>
<Latitud>42.98462</Latitud>
<Longitud>-8.313807</Longitud>
</localidad>
<localidad>
<nombre>Pontes de García Rodríguez, As</nombre>
<IdProvincia>1</IdProvincia>
<ID>442</ID>
<Latitud>43.44582</Latitud>
<Longitud>-7.849446</Longitud>
</localidad>
<localidad>
<nombre>Valdoviño</nombre>
<IdProvincia>1</IdProvincia>
<ID>443</ID>
<Latitud>43.6</Latitud>
<Longitud>-8.133056</Longitud>
</localidad>
<localidad>
<nombre>Vilarmaior</nombre>
<IdProvincia>1</IdProvincia>
<ID>444</ID>
<Latitud>43.34461</Latitud>
<Longitud>-8.15395</Longitud>
</localidad>
<localidad>
<nombre>Arrazua-Ubarrundia</nombre>
<IdProvincia>2</IdProvincia>
<ID>445</ID>
<Latitud>42.89028</Latitud>
<Longitud>-2.639167</Longitud>
</localidad>
<localidad>
<nombre>Laguardia</nombre>
<IdProvincia>2</IdProvincia>
<ID>446</ID>
<Latitud>42.55428</Latitud>
<Longitud>-2.584237</Longitud>
</localidad>
<localidad>
<nombre>Ribera Alta</nombre>
<IdProvincia>2</IdProvincia>
<ID>447</ID>
<Latitud>42.71577</Latitud>
<Longitud>-2.968477</Longitud>
</localidad>
<localidad>
<nombre>Urkabustaiz</nombre>
<IdProvincia>2</IdProvincia>
<ID>448</ID>
<Latitud>42.97194</Latitud>
<Longitud>-2.922222</Longitud>
</localidad>
<localidad>
<nombre>Valdegovía</nombre>
<IdProvincia>2</IdProvincia>
<ID>449</ID>
<Latitud>42.85</Latitud>
<Longitud>-3.1</Longitud>
</localidad>
<localidad>
<nombre>Alcaraz</nombre>
<IdProvincia>3</IdProvincia>
<ID>450</ID>
<Latitud>38.66966</Latitud>
<Longitud>-2.492647</Longitud>
</localidad>
<localidad>
<nombre>Bonete</nombre>
<IdProvincia>3</IdProvincia>
<ID>451</ID>
<Latitud>38.8693</Latitud>
<Longitud>-1.348517</Longitud>
</localidad>
<localidad>
<nombre>Casas-Ibáñez</nombre>
<IdProvincia>3</IdProvincia>
<ID>452</ID>
<Latitud>39.28518</Latitud>
<Longitud>-1.47113</Longitud>
</localidad>
<localidad>
<nombre>Hellín</nombre>
<IdProvincia>3</IdProvincia>
<ID>453</ID>
<Latitud>38.51216</Latitud>
<Longitud>-1.70331</Longitud>
</localidad>
<localidad>
<nombre>Letur</nombre>
<IdProvincia>3</IdProvincia>
<ID>454</ID>
<Latitud>38.36555</Latitud>
<Longitud>-2.101964</Longitud>
</localidad>
<localidad>
<nombre>Tobarra</nombre>
<IdProvincia>3</IdProvincia>
<ID>455</ID>
<Latitud>38.58844</Latitud>
<Longitud>-1.693783</Longitud>
</localidad>
<localidad>
<nombre>Yeste</nombre>
<IdProvincia>3</IdProvincia>
<ID>456</ID>
<Latitud>38.36583</Latitud>
<Longitud>-2.318711</Longitud>
</localidad>
<localidad>
<nombre>Alcoy/Alcoi</nombre>
<IdProvincia>4</IdProvincia>
<ID>457</ID>
<Latitud>38.69763</Latitud>
<Longitud>-0.4730959</Longitud>
</localidad>
<localidad>
<nombre>Alicante/Alacant</nombre>
<IdProvincia>4</IdProvincia>
<ID>458</ID>
<Latitud>38.3452</Latitud>
<Longitud>-0.481006</Longitud>
</localidad>
<localidad>
<nombre>Benejúzar</nombre>
<IdProvincia>4</IdProvincia>
<ID>459</ID>
<Latitud>38.07839</Latitud>
<Longitud>-0.8384452</Longitud>
</localidad>
<localidad>
<nombre>Bigastro</nombre>
<IdProvincia>4</IdProvincia>
<ID>460</ID>
<Latitud>38.06304</Latitud>
<Longitud>-0.8955043</Longitud>
</localidad>
<localidad>
<nombre>Guardamar del Segura</nombre>
<IdProvincia>4</IdProvincia>
<ID>461</ID>
<Latitud>38.08615</Latitud>
<Longitud>-0.651254</Longitud>
</localidad>
<localidad>
<nombre>Hondón de las Nieves</nombre>
<IdProvincia>4</IdProvincia>
<ID>462</ID>
<Latitud>38.30504</Latitud>
<Longitud>-0.9341582</Longitud>
</localidad>
<localidad>
<nombre>Ibi</nombre>
<IdProvincia>4</IdProvincia>
<ID>463</ID>
<Latitud>38.62551</Latitud>
<Longitud>-0.5713521</Longitud>
</localidad>
<localidad>
<nombre>Jávea/Xàbia</nombre>
<IdProvincia>4</IdProvincia>
<ID>464</ID>
<Latitud>38.79546</Latitud>
<Longitud>0.1166293</Longitud>
</localidad>
<localidad>
<nombre>Jijona/Xixona</nombre>
<IdProvincia>4</IdProvincia>
<ID>465</ID>
<Latitud>38.54006</Latitud>
<Longitud>-0.5077739</Longitud>
</localidad>
<localidad>
<nombre>Orihuela</nombre>
<IdProvincia>4</IdProvincia>
<ID>466</ID>
<Latitud>38.08395</Latitud>
<Longitud>-0.9447829</Longitud>
</localidad>
<localidad>
<nombre>Berja</nombre>
<IdProvincia>5</IdProvincia>
<ID>467</ID>
<Latitud>36.84644</Latitud>
<Longitud>-2.949425</Longitud>
</localidad>
<localidad>
<nombre>Illar</nombre>
<IdProvincia>5</IdProvincia>
<ID>468</ID>
<Latitud>36.98504</Latitud>
<Longitud>-2.639302</Longitud>
</localidad>
<localidad>
<nombre>Sierro</nombre>
<IdProvincia>5</IdProvincia>
<ID>469</ID>
<Latitud>37.32348</Latitud>
<Longitud>-2.398526</Longitud>
</localidad>
<localidad>
<nombre>Aller</nombre>
<IdProvincia>6</IdProvincia>
<ID>470</ID>
<Latitud>43.1497</Latitud>
<Longitud>-5.687873</Longitud>
</localidad>
<localidad>
<nombre>Amieva</nombre>
<IdProvincia>6</IdProvincia>
<ID>471</ID>
<Latitud>43.24429</Latitud>
<Longitud>-5.074191</Longitud>
</localidad>
<localidad>
<nombre>Areces</nombre>
<IdProvincia>6</IdProvincia>
<ID>472</ID>
<Latitud>43.4072962</Latitud>
<Longitud>-6.004972</Longitud>
</localidad>
<localidad>
<nombre>Carreño</nombre>
<IdProvincia>6</IdProvincia>
<ID>473</ID>
<Latitud>43.54855</Latitud>
<Longitud>-5.789795</Longitud>
</localidad>
<localidad>
<nombre>Colunga</nombre>
<IdProvincia>6</IdProvincia>
<ID>474</ID>
<Latitud>43.48529</Latitud>
<Longitud>-5.270611</Longitud>
</localidad>
<localidad>
<nombre>Corvera de Asturias</nombre>
<IdProvincia>6</IdProvincia>
<ID>475</ID>
<Latitud>43.51012</Latitud>
<Longitud>-5.869227</Longitud>
</localidad>
<localidad>
<nombre>Degaña</nombre>
<IdProvincia>6</IdProvincia>
<ID>476</ID>
<Latitud>42.94008</Latitud>
<Longitud>-6.570541</Longitud>
</localidad>
<localidad>
<nombre>Franco, El</nombre>
<IdProvincia>6</IdProvincia>
<ID>477</ID>
<Latitud>43.55703</Latitud>
<Longitud>-6.87387</Longitud>
</localidad>
<localidad>
<nombre>Nava</nombre>
<IdProvincia>6</IdProvincia>
<ID>478</ID>
<Latitud>43.35816</Latitud>
<Longitud>-5.505977</Longitud>
</localidad>
<localidad>
<nombre>Peñamellera Alta</nombre>
<IdProvincia>6</IdProvincia>
<ID>479</ID>
<Latitud>43.32</Latitud>
<Longitud>-4.71</Longitud>
</localidad>
<localidad>
<nombre>Peñamellera Baja</nombre>
<IdProvincia>6</IdProvincia>
<ID>480</ID>
<Latitud>43.31</Latitud>
<Longitud>-4.59</Longitud>
</localidad>
<localidad>
<nombre>Ribadedeva</nombre>
<IdProvincia>6</IdProvincia>
<ID>481</ID>
<Latitud>43.37</Latitud>
<Longitud>-4.57</Longitud>
</localidad>
<localidad>
<nombre>Ribera de Arriba</nombre>
<IdProvincia>6</IdProvincia>
<ID>482</ID>
<Latitud>43.30809</Latitud>
<Longitud>-5.893434</Longitud>
</localidad>
<localidad>
<nombre>Tapia de Casariego</nombre>
<IdProvincia>6</IdProvincia>
<ID>483</ID>
<Latitud>43.56975</Latitud>
<Longitud>-6.943604</Longitud>
</localidad>
<localidad>
<nombre>Adanero</nombre>
<IdProvincia>7</IdProvincia>
<ID>484</ID>
<Latitud>40.94591</Latitud>
<Longitud>-4.606659</Longitud>
</localidad>
<localidad>
<nombre>Arenal, El</nombre>
<IdProvincia>7</IdProvincia>
<ID>485</ID>
<Latitud>40.26487</Latitud>
<Longitud>-5.087197</Longitud>
</localidad>
<localidad>
<nombre>Arenas de San Pedro</nombre>
<IdProvincia>7</IdProvincia>
<ID>486</ID>
<Latitud>40.20872</Latitud>
<Longitud>-5.091141</Longitud>
</localidad>
<localidad>
<nombre>Ávila</nombre>
<IdProvincia>7</IdProvincia>
<ID>487</ID>
<Latitud>40.65642</Latitud>
<Longitud>-4.700323</Longitud>
</localidad>
<localidad>
<nombre>Bohodón, El</nombre>
<IdProvincia>7</IdProvincia>
<ID>488</ID>
<Latitud>40.91633</Latitud>
<Longitud>-4.730068</Longitud>
</localidad>
<localidad>
<nombre>Burgohondo</nombre>
<IdProvincia>7</IdProvincia>
<ID>489</ID>
<Latitud>40.41368</Latitud>
<Longitud>-4.786215</Longitud>
</localidad>
<localidad>
<nombre>Casavieja</nombre>
<IdProvincia>7</IdProvincia>
<ID>490</ID>
<Latitud>40.28105</Latitud>
<Longitud>-4.766778</Longitud>
</localidad>
<localidad>
<nombre>Cebreros</nombre>
<IdProvincia>7</IdProvincia>
<ID>491</ID>
<Latitud>40.45507</Latitud>
<Longitud>-4.464714</Longitud>
</localidad>
<localidad>
<nombre>Cepeda la Mora</nombre>
<IdProvincia>7</IdProvincia>
<ID>492</ID>
<Latitud>40.45761</Latitud>
<Longitud>-5.048178</Longitud>
</localidad>
<localidad>
<nombre>Crespos</nombre>
<IdProvincia>7</IdProvincia>
<ID>493</ID>
<Latitud>40.87341</Latitud>
<Longitud>-4.969728</Longitud>
</localidad>
<localidad>
<nombre>Flores de Ávila</nombre>
<IdProvincia>7</IdProvincia>
<ID>494</ID>
<Latitud>40.93462</Latitud>
<Longitud>-5.078152</Longitud>
</localidad>
<localidad>
<nombre>Fuente el Saúz</nombre>
<IdProvincia>7</IdProvincia>
<ID>495</ID>
<Latitud>40.97907</Latitud>
<Longitud>-4.910458</Longitud>
</localidad>
<localidad>
<nombre>Gavilanes</nombre>
<IdProvincia>7</IdProvincia>
<ID>496</ID>
<Latitud>40.27752</Latitud>
<Longitud>-4.851113</Longitud>
</localidad>
<localidad>
<nombre>Higuera de las Dueñas</nombre>
<IdProvincia>7</IdProvincia>
<ID>497</ID>
<Latitud>40.23775</Latitud>
<Longitud>-4.601235</Longitud>
</localidad>
<localidad>
<nombre>Hornillo, El</nombre>
<IdProvincia>7</IdProvincia>
<ID>498</ID>
<Latitud>40.24966</Latitud>
<Longitud>-5.104175</Longitud>
</localidad>
<localidad>
<nombre>Hoyos del Collado</nombre>
<IdProvincia>7</IdProvincia>
<ID>499</ID>
<Latitud>40.35938</Latitud>
<Longitud>-5.201206</Longitud>
</localidad>
<localidad>
<nombre>Hoyos del Espino</nombre>
<IdProvincia>7</IdProvincia>
<ID>500</ID>
<Latitud>40.35726</Latitud>
<Longitud>-5.173525</Longitud>
</localidad>
<localidad>
<nombre>Navarrevisca</nombre>
<IdProvincia>7</IdProvincia>
<ID>501</ID>
<Latitud>40.36426</Latitud>
<Longitud>-4.89544</Longitud>
</localidad>
<localidad>
<nombre>Pedro Bernardo</nombre>
<IdProvincia>7</IdProvincia>
<ID>502</ID>
<Latitud>40.24287</Latitud>
<Longitud>-4.914765</Longitud>
</localidad>
<localidad>
<nombre>Piedralaves</nombre>
<IdProvincia>7</IdProvincia>
<ID>503</ID>
<Latitud>40.31736</Latitud>
<Longitud>-4.69809</Longitud>
</localidad>
<localidad>
<nombre>Santa Cruz del Valle</nombre>
<IdProvincia>7</IdProvincia>
<ID>504</ID>
<Latitud>40.25078</Latitud>
<Longitud>-5.003672</Longitud>
</localidad>
<localidad>
<nombre>Tiemblo, El</nombre>
<IdProvincia>7</IdProvincia>
<ID>505</ID>
<Latitud>40.41628</Latitud>
<Longitud>-4.503831</Longitud>
</localidad>
<localidad>
<nombre>Alburquerque</nombre>
<IdProvincia>8</IdProvincia>
<ID>506</ID>
<Latitud>39.21936</Latitud>
<Longitud>-7.001317</Longitud>
</localidad>
<localidad>
<nombre>Alconchel</nombre>
<IdProvincia>8</IdProvincia>
<ID>507</ID>
<Latitud>38.51668</Latitud>
<Longitud>-7.070871</Longitud>
</localidad>
<localidad>
<nombre>Almendral</nombre>
<IdProvincia>8</IdProvincia>
<ID>508</ID>
<Latitud>38.61327</Latitud>
<Longitud>-6.822295</Longitud>
</localidad>
<localidad>
<nombre>Arroyo de San Serván</nombre>
<IdProvincia>8</IdProvincia>
<ID>509</ID>
<Latitud>38.85286</Latitud>
<Longitud>-6.455208</Longitud>
</localidad>
<localidad>
<nombre>Azuaga</nombre>
<IdProvincia>8</IdProvincia>
<ID>510</ID>
<Latitud>38.25962</Latitud>
<Longitud>-5.677916</Longitud>
</localidad>
<localidad>
<nombre>Cabeza la Vaca</nombre>
<IdProvincia>8</IdProvincia>
<ID>511</ID>
<Latitud>38.08687</Latitud>
<Longitud>-6.422567</Longitud>
</localidad>
<localidad>
<nombre>Casas de Don Pedro</nombre>
<IdProvincia>8</IdProvincia>
<ID>512</ID>
<Latitud>39.10563</Latitud>
<Longitud>-5.328635</Longitud>
</localidad>
<localidad>
<nombre>Castuera</nombre>
<IdProvincia>8</IdProvincia>
<ID>513</ID>
<Latitud>38.72257</Latitud>
<Longitud>-5.545517</Longitud>
</localidad>
<localidad>
<nombre>Fregenal de la Sierra</nombre>
<IdProvincia>8</IdProvincia>
<ID>514</ID>
<Latitud>38.16476</Latitud>
<Longitud>-6.651353</Longitud>
</localidad>
<localidad>
<nombre>Herrera del Duque</nombre>
<IdProvincia>8</IdProvincia>
<ID>515</ID>
<Latitud>39.16891</Latitud>
<Longitud>-5.051313</Longitud>
</localidad>
<localidad>
<nombre>Llerena</nombre>
<IdProvincia>8</IdProvincia>
<ID>516</ID>
<Latitud>38.23769</Latitud>
<Longitud>-6.015329</Longitud>
</localidad>
<localidad>
<nombre>Medina de las Torres</nombre>
<IdProvincia>8</IdProvincia>
<ID>517</ID>
<Latitud>38.34339</Latitud>
<Longitud>-6.411753</Longitud>
</localidad>
<localidad>
<nombre>Mérida</nombre>
<IdProvincia>8</IdProvincia>
<ID>518</ID>
<Latitud>38.91586</Latitud>
<Longitud>-6.345606</Longitud>
</localidad>
<localidad>
<nombre>Monesterio</nombre>
<IdProvincia>8</IdProvincia>
<ID>519</ID>
<Latitud>38.08678</Latitud>
<Longitud>-6.274293</Longitud>
</localidad>
<localidad>
<nombre>Monterrubio de la Serena</nombre>
<IdProvincia>8</IdProvincia>
<ID>520</ID>
<Latitud>38.5892</Latitud>
<Longitud>-5.443485</Longitud>
</localidad>
<localidad>
<nombre>Nogales</nombre>
<IdProvincia>8</IdProvincia>
<ID>521</ID>
<Latitud>38.58658</Latitud>
<Longitud>-6.749022</Longitud>
</localidad>
<localidad>
<nombre>Orellana la Vieja</nombre>
<IdProvincia>8</IdProvincia>
<ID>522</ID>
<Latitud>39.00505</Latitud>
<Longitud>-5.534274</Longitud>
</localidad>
<localidad>
<nombre>Peñalsordo</nombre>
<IdProvincia>8</IdProvincia>
<ID>523</ID>
<Latitud>38.81918</Latitud>
<Longitud>-5.114106</Longitud>
</localidad>
<localidad>
<nombre>Puebla de Alcocer</nombre>
<IdProvincia>8</IdProvincia>
<ID>524</ID>
<Latitud>38.98521</Latitud>
<Longitud>-5.257938</Longitud>
</localidad>
<localidad>
<nombre>Salvatierra de los Barros</nombre>
<IdProvincia>8</IdProvincia>
<ID>525</ID>
<Latitud>38.49078</Latitud>
<Longitud>-6.685156</Longitud>
</localidad>
<localidad>
<nombre>Santa Amalia</nombre>
<IdProvincia>8</IdProvincia>
<ID>526</ID>
<Latitud>39.01209</Latitud>
<Longitud>-6.01155</Longitud>
</localidad>
<localidad>
<nombre>Valdecaballeros</nombre>
<IdProvincia>8</IdProvincia>
<ID>527</ID>
<Latitud>39.24578</Latitud>
<Longitud>-5.191957</Longitud>
</localidad>
<localidad>
<nombre>Valle de la Serena</nombre>
<IdProvincia>8</IdProvincia>
<ID>528</ID>
<Latitud>38.70062</Latitud>
<Longitud>-5.799649</Longitud>
</localidad>
<localidad>
<nombre>Villafranca de los Barros</nombre>
<IdProvincia>8</IdProvincia>
<ID>529</ID>
<Latitud>38.5623</Latitud>
<Longitud>-6.337831</Longitud>
</localidad>
<localidad>
<nombre>Villanueva de la Serena</nombre>
<IdProvincia>8</IdProvincia>
<ID>530</ID>
<Latitud>38.97399</Latitud>
<Longitud>-5.800302</Longitud>
</localidad>
<localidad>
<nombre>Villar del Rey</nombre>
<IdProvincia>8</IdProvincia>
<ID>531</ID>
<Latitud>39.13239</Latitud>
<Longitud>-6.847796</Longitud>
</localidad>
<localidad>
<nombre>Zalamea de la Serena</nombre>
<IdProvincia>8</IdProvincia>
<ID>532</ID>
<Latitud>38.64977</Latitud>
<Longitud>-5.656967</Longitud>
</localidad>
<localidad>
<nombre>Abrera</nombre>
<IdProvincia>9</IdProvincia>
<ID>533</ID>
<Latitud>41.51609</Latitud>
<Longitud>1.902142</Longitud>
</localidad>
<localidad>
<nombre>Avinyonet del Penedès</nombre>
<IdProvincia>9</IdProvincia>
<ID>534</ID>
<Latitud>41.3606</Latitud>
<Longitud>1.776485</Longitud>
</localidad>
<localidad>
<nombre>Badalona</nombre>
<IdProvincia>9</IdProvincia>
<ID>535</ID>
<Latitud>41.45014</Latitud>
<Longitud>2.24742</Longitud>
</localidad>
<localidad>
<nombre>Begues</nombre>
<IdProvincia>9</IdProvincia>
<ID>536</ID>
<Latitud>41.33101</Latitud>
<Longitud>1.921987</Longitud>
</localidad>
<localidad>
<nombre>Berga</nombre>
<IdProvincia>9</IdProvincia>
<ID>537</ID>
<Latitud>42.10144</Latitud>
<Longitud>1.8438</Longitud>
</localidad>
<localidad>
<nombre>Calaf</nombre>
<IdProvincia>9</IdProvincia>
<ID>538</ID>
<Latitud>41.73342</Latitud>
<Longitud>1.513498</Longitud>
</localidad>
<localidad>
<nombre>Castellbisbal</nombre>
<IdProvincia>9</IdProvincia>
<ID>539</ID>
<Latitud>41.47467</Latitud>
<Longitud>1.981407</Longitud>
</localidad>
<localidad>
<nombre>Cerdanyola del Vallès</nombre>
<IdProvincia>9</IdProvincia>
<ID>540</ID>
<Latitud>41.49137</Latitud>
<Longitud>2.140769</Longitud>
</localidad>
<localidad>
<nombre>Collbató</nombre>
<IdProvincia>9</IdProvincia>
<ID>541</ID>
<Latitud>41.56639</Latitud>
<Longitud>1.830136</Longitud>
</localidad>
<localidad>
<nombre>Cornellà de Llobregat</nombre>
<IdProvincia>9</IdProvincia>
<ID>542</ID>
<Latitud>41.35561</Latitud>
<Longitud>2.070432</Longitud>
</localidad>
<localidad>
<nombre>Esparreguera</nombre>
<IdProvincia>9</IdProvincia>
<ID>543</ID>
<Latitud>41.53889</Latitud>
<Longitud>1.870692</Longitud>
</localidad>
<localidad>
<nombre>Font-rubí</nombre>
<IdProvincia>9</IdProvincia>
<ID>544</ID>
<Latitud>41.43423</Latitud>
<Longitud>1.591408</Longitud>
</localidad>
<localidad>
<nombre>Gelida</nombre>
<IdProvincia>9</IdProvincia>
<ID>545</ID>
<Latitud>41.44048</Latitud>
<Longitud>1.862745</Longitud>
</localidad>
<localidad>
<nombre>Granada, La</nombre>
<IdProvincia>9</IdProvincia>
<ID>546</ID>
<Latitud>41.37685</Latitud>
<Longitud>1.719494</Longitud>
</localidad>
<localidad>
<nombre>Gurb</nombre>
<IdProvincia>9</IdProvincia>
<ID>547</ID>
<Latitud>41.95394</Latitud>
<Longitud>2.235545</Longitud>
</localidad>
<localidad>
<nombre>Igualada</nombre>
<IdProvincia>9</IdProvincia>
<ID>548</ID>
<Latitud>41.57877</Latitud>
<Longitud>1.617193</Longitud>
</localidad>
<localidad>
<nombre>Manresa</nombre>
<IdProvincia>9</IdProvincia>
<ID>549</ID>
<Latitud>41.72517</Latitud>
<Longitud>1.823353</Longitud>
</localidad>
<localidad>
<nombre>Martorell</nombre>
<IdProvincia>9</IdProvincia>
<ID>550</ID>
<Latitud>41.47355</Latitud>
<Longitud>1.927682</Longitud>
</localidad>
<localidad>
<nombre>Mataró</nombre>
<IdProvincia>9</IdProvincia>
<ID>551</ID>
<Latitud>41.5375</Latitud>
<Longitud>2.445278</Longitud>
</localidad>
<localidad>
<nombre>Olesa de Bonesvalls</nombre>
<IdProvincia>9</IdProvincia>
<ID>552</ID>
<Latitud>41.35301</Latitud>
<Longitud>1.849887</Longitud>
</localidad>
<localidad>
<nombre>Prats de Lluçanès</nombre>
<IdProvincia>9</IdProvincia>
<ID>553</ID>
<Latitud>42.00874</Latitud>
<Longitud>2.028578</Longitud>
</localidad>
<localidad>
<nombre>Prats de Rei, Els</nombre>
<IdProvincia>9</IdProvincia>
<ID>554</ID>
<Latitud>41.7055</Latitud>
<Longitud>1.541531</Longitud>
</localidad>
<localidad>
<nombre>Roda de Ter</nombre>
<IdProvincia>9</IdProvincia>
<ID>555</ID>
<Latitud>41.98597</Latitud>
<Longitud>2.311212</Longitud>
</localidad>
<localidad>
<nombre>Sant Boi de Llobregat</nombre>
<IdProvincia>9</IdProvincia>
<ID>556</ID>
<Latitud>41.34739</Latitud>
<Longitud>2.043103</Longitud>
</localidad>
<localidad>
<nombre>Sant Joan Despí</nombre>
<IdProvincia>9</IdProvincia>
<ID>557</ID>
<Latitud>41.36769</Latitud>
<Longitud>2.056065</Longitud>
</localidad>
<localidad>
<nombre>Sant Just Desvern</nombre>
<IdProvincia>9</IdProvincia>
<ID>558</ID>
<Latitud>41.38576</Latitud>
<Longitud>2.075544</Longitud>
</localidad>
<localidad>
<nombre>Sant Pau d&apos;Ordal</nombre>
<IdProvincia>9</IdProvincia>
<ID>559</ID>
<Latitud>41.3833824</Latitud>
<Longitud>1.79041</Longitud>
</localidad>
<localidad>
<nombre>Sant Pere de Riudebitlles</nombre>
<IdProvincia>9</IdProvincia>
<ID>560</ID>
<Latitud>41.45347</Latitud>
<Longitud>1.701628</Longitud>
</localidad>
<localidad>
<nombre>Sitges</nombre>
<IdProvincia>9</IdProvincia>
<ID>561</ID>
<Latitud>41.23478</Latitud>
<Longitud>1.811222</Longitud>
</localidad>
<localidad>
<nombre>Terrassa</nombre>
<IdProvincia>9</IdProvincia>
<ID>562</ID>
<Latitud>41.56095</Latitud>
<Longitud>2.01044</Longitud>
</localidad>
<localidad>
<nombre>Torrelavit</nombre>
<IdProvincia>9</IdProvincia>
<ID>563</ID>
<Latitud>41.44635</Latitud>
<Longitud>1.729874</Longitud>
</localidad>
<localidad>
<nombre>Vilanova i la Geltrú</nombre>
<IdProvincia>9</IdProvincia>
<ID>564</ID>
<Latitud>41.22415</Latitud>
<Longitud>1.725568</Longitud>
</localidad>
<localidad>
<nombre>Alfoz de Bricia</nombre>
<IdProvincia>10</IdProvincia>
<ID>565</ID>
<Latitud>42.89667</Latitud>
<Longitud>-3.879167</Longitud>
</localidad>
<localidad>
<nombre>Altable</nombre>
<IdProvincia>10</IdProvincia>
<ID>566</ID>
<Latitud>42.60335</Latitud>
<Longitud>-3.077159</Longitud>
</localidad>
<localidad>
<nombre>Arenillas de Riopisuerga</nombre>
<IdProvincia>10</IdProvincia>
<ID>567</ID>
<Latitud>42.35673</Latitud>
<Longitud>-4.233235</Longitud>
</localidad>
<localidad>
<nombre>Berlangas de Roa</nombre>
<IdProvincia>10</IdProvincia>
<ID>568</ID>
<Latitud>41.6894</Latitud>
<Longitud>-3.87417</Longitud>
</localidad>
<localidad>
<nombre>Briviesca</nombre>
<IdProvincia>10</IdProvincia>
<ID>569</ID>
<Latitud>42.55029</Latitud>
<Longitud>-3.323369</Longitud>
</localidad>
<localidad>
<nombre>Burgos</nombre>
<IdProvincia>10</IdProvincia>
<ID>570</ID>
<Latitud>42.34087</Latitud>
<Longitud>-3.699731</Longitud>
</localidad>
<localidad>
<nombre>Cabezón de la Sierra</nombre>
<IdProvincia>10</IdProvincia>
<ID>571</ID>
<Latitud>41.93455</Latitud>
<Longitud>-3.242159</Longitud>
</localidad>
<localidad>
<nombre>Carcedo de Bureba</nombre>
<IdProvincia>10</IdProvincia>
<ID>572</ID>
<Latitud>42.5783</Latitud>
<Longitud>-3.498399</Longitud>
</localidad>
<localidad>
<nombre>Castrillo del Val</nombre>
<IdProvincia>10</IdProvincia>
<ID>573</ID>
<Latitud>42.31421</Latitud>
<Longitud>-3.584872</Longitud>
</localidad>
<localidad>
<nombre>Castrojeriz</nombre>
<IdProvincia>10</IdProvincia>
<ID>574</ID>
<Latitud>42.28828</Latitud>
<Longitud>-4.138836</Longitud>
</localidad>
<localidad>
<nombre>Covarrubias</nombre>
<IdProvincia>10</IdProvincia>
<ID>575</ID>
<Latitud>42.05919</Latitud>
<Longitud>-3.520237</Longitud>
</localidad>
<localidad>
<nombre>Espinosa de Cervera</nombre>
<IdProvincia>10</IdProvincia>
<ID>576</ID>
<Latitud>41.89632</Latitud>
<Longitud>-3.468393</Longitud>
</localidad>
<localidad>
<nombre>Gumiel de Izán</nombre>
<IdProvincia>10</IdProvincia>
<ID>577</ID>
<Latitud>41.7734</Latitud>
<Longitud>-3.688242</Longitud>
</localidad>
<localidad>
<nombre>Horra, La</nombre>
<IdProvincia>10</IdProvincia>
<ID>578</ID>
<Latitud>41.74088</Latitud>
<Longitud>-3.875266</Longitud>
</localidad>
<localidad>
<nombre>Mambrillas de Lara</nombre>
<IdProvincia>10</IdProvincia>
<ID>579</ID>
<Latitud>42.09437</Latitud>
<Longitud>-3.461727</Longitud>
</localidad>
<localidad>
<nombre>Merindad de Cuesta-Urria</nombre>
<IdProvincia>10</IdProvincia>
<ID>580</ID>
<Latitud>42.9</Latitud>
<Longitud>-3.391667</Longitud>
</localidad>
<localidad>
<nombre>Merindad de Sotoscueva</nombre>
<IdProvincia>10</IdProvincia>
<ID>581</ID>
<Latitud>43.05877</Latitud>
<Longitud>-3.642048</Longitud>
</localidad>
<localidad>
<nombre>Milagros</nombre>
<IdProvincia>10</IdProvincia>
<ID>582</ID>
<Latitud>41.57555</Latitud>
<Longitud>-3.699167</Longitud>
</localidad>
<localidad>
<nombre>Olmedillo de Roa</nombre>
<IdProvincia>10</IdProvincia>
<ID>583</ID>
<Latitud>41.78319</Latitud>
<Longitud>-3.934045</Longitud>
</localidad>
<localidad>
<nombre>Rabanera del Pinar</nombre>
<IdProvincia>10</IdProvincia>
<ID>584</ID>
<Latitud>41.89267</Latitud>
<Longitud>-3.19425</Longitud>
</localidad>
<localidad>
<nombre>Sargentes de la Lora</nombre>
<IdProvincia>10</IdProvincia>
<ID>585</ID>
<Latitud>42.76923</Latitud>
<Longitud>-3.872826</Longitud>
</localidad>
<localidad>
<nombre>Tubilla del Agua</nombre>
<IdProvincia>10</IdProvincia>
<ID>586</ID>
<Latitud>42.70913</Latitud>
<Longitud>-3.803644</Longitud>
</localidad>
<localidad>
<nombre>Valle de Mena</nombre>
<IdProvincia>10</IdProvincia>
<ID>587</ID>
<Latitud>43.1</Latitud>
<Longitud>-3.283333</Longitud>
</localidad>
<localidad>
<nombre>Villadiego</nombre>
<IdProvincia>10</IdProvincia>
<ID>588</ID>
<Latitud>42.51575</Latitud>
<Longitud>-4.010096</Longitud>
</localidad>
<localidad>
<nombre>Villarcayo de Merindad de Castilla la Vieja</nombre>
<IdProvincia>10</IdProvincia>
<ID>589</ID>
<Latitud>42.9383</Latitud>
<Longitud>-3.572985</Longitud>
</localidad>
<localidad>
<nombre>Villasana de Mena</nombre>
<IdProvincia>10</IdProvincia>
<ID>590</ID>
<Latitud>43.1001978</Latitud>
<Longitud>-3.291833</Longitud>
</localidad>
<localidad>
<nombre>Cabañas del Castillo</nombre>
<IdProvincia>11</IdProvincia>
<ID>591</ID>
<Latitud>39.54757</Latitud>
<Longitud>-5.511646</Longitud>
</localidad>
<localidad>
<nombre>Cáceres</nombre>
<IdProvincia>11</IdProvincia>
<ID>592</ID>
<Latitud>39.47618</Latitud>
<Longitud>-6.37076</Longitud>
</localidad>
<localidad>
<nombre>Cuacos de Yuste</nombre>
<IdProvincia>11</IdProvincia>
<ID>593</ID>
<Latitud>40.10612</Latitud>
<Longitud>-5.722965</Longitud>
</localidad>
<localidad>
<nombre>Escurial</nombre>
<IdProvincia>11</IdProvincia>
<ID>594</ID>
<Latitud>39.16914</Latitud>
<Longitud>-5.885627</Longitud>
</localidad>
<localidad>
<nombre>Logrosán</nombre>
<IdProvincia>11</IdProvincia>
<ID>595</ID>
<Latitud>39.33704</Latitud>
<Longitud>-5.486933</Longitud>
</localidad>
<localidad>
<nombre>Navas del Madroño</nombre>
<IdProvincia>11</IdProvincia>
<ID>596</ID>
<Latitud>39.62302</Latitud>
<Longitud>-6.651073</Longitud>
</localidad>
<localidad>
<nombre>Plasencia</nombre>
<IdProvincia>11</IdProvincia>
<ID>597</ID>
<Latitud>40.0305</Latitud>
<Longitud>-6.088251</Longitud>
</localidad>
<localidad>
<nombre>Pozuelo de Zarzón</nombre>
<IdProvincia>11</IdProvincia>
<ID>598</ID>
<Latitud>40.14914</Latitud>
<Longitud>-6.415245</Longitud>
</localidad>
<localidad>
<nombre>Robledollano</nombre>
<IdProvincia>11</IdProvincia>
<ID>599</ID>
<Latitud>39.61113</Latitud>
<Longitud>-5.510137</Longitud>
</localidad>
<localidad>
<nombre>Trujillo</nombre>
<IdProvincia>11</IdProvincia>
<ID>600</ID>
<Latitud>39.45842</Latitud>
<Longitud>-5.881428</Longitud>
</localidad>
<localidad>
<nombre>Valdelacasa de Tajo</nombre>
<IdProvincia>11</IdProvincia>
<ID>601</ID>
<Latitud>39.72631</Latitud>
<Longitud>-5.281958</Longitud>
</localidad>
<localidad>
<nombre>Valverde de la Vera</nombre>
<IdProvincia>11</IdProvincia>
<ID>602</ID>
<Latitud>40.1233</Latitud>
<Longitud>-5.494221</Longitud>
</localidad>
<localidad>
<nombre>Villar del Pedroso</nombre>
<IdProvincia>11</IdProvincia>
<ID>603</ID>
<Latitud>39.70632</Latitud>
<Longitud>-5.196259</Longitud>
</localidad>
<localidad>
<nombre>Zorita</nombre>
<IdProvincia>11</IdProvincia>
<ID>604</ID>
<Latitud>39.28505</Latitud>
<Longitud>-5.700322</Longitud>
</localidad>
<localidad>
<nombre>Alcalá del Valle</nombre>
<IdProvincia>12</IdProvincia>
<ID>605</ID>
<Latitud>36.90491</Latitud>
<Longitud>-5.173237</Longitud>
</localidad>
<localidad>
<nombre>Algar</nombre>
<IdProvincia>12</IdProvincia>
<ID>606</ID>
<Latitud>36.65533</Latitud>
<Longitud>-5.657418</Longitud>
</localidad>
<localidad>
<nombre>Algeciras</nombre>
<IdProvincia>12</IdProvincia>
<ID>607</ID>
<Latitud>36.12978</Latitud>
<Longitud>-5.447698</Longitud>
</localidad>
<localidad>
<nombre>Algodonales</nombre>
<IdProvincia>12</IdProvincia>
<ID>608</ID>
<Latitud>36.88092</Latitud>
<Longitud>-5.405773</Longitud>
</localidad>
<localidad>
<nombre>Barrios, Los</nombre>
<IdProvincia>12</IdProvincia>
<ID>609</ID>
<Latitud>36.18539</Latitud>
<Longitud>-5.492747</Longitud>
</localidad>
<localidad>
<nombre>Bornos</nombre>
<IdProvincia>12</IdProvincia>
<ID>610</ID>
<Latitud>36.81459</Latitud>
<Longitud>-5.743362</Longitud>
</localidad>
<localidad>
<nombre>Chiclana de la Frontera</nombre>
<IdProvincia>12</IdProvincia>
<ID>611</ID>
<Latitud>36.41915</Latitud>
<Longitud>-6.149412</Longitud>
</localidad>
<localidad>
<nombre>Chipiona</nombre>
<IdProvincia>12</IdProvincia>
<ID>612</ID>
<Latitud>36.7408</Latitud>
<Longitud>-6.43587</Longitud>
</localidad>
<localidad>
<nombre>Espera</nombre>
<IdProvincia>12</IdProvincia>
<ID>613</ID>
<Latitud>36.87319</Latitud>
<Longitud>-5.806213</Longitud>
</localidad>
<localidad>
<nombre>Línea de la Concepción, La</nombre>
<IdProvincia>12</IdProvincia>
<ID>614</ID>
<Latitud>36.16118</Latitud>
<Longitud>-5.348256</Longitud>
</localidad>
<localidad>
<nombre>Medina-Sidonia</nombre>
<IdProvincia>12</IdProvincia>
<ID>615</ID>
<Latitud>36.46768</Latitud>
<Longitud>-5.927894</Longitud>
</localidad>
<localidad>
<nombre>Paterna de Rivera</nombre>
<IdProvincia>12</IdProvincia>
<ID>616</ID>
<Latitud>36.52333</Latitud>
<Longitud>-5.866053</Longitud>
</localidad>
<localidad>
<nombre>Puerto de Santa María, El</nombre>
<IdProvincia>12</IdProvincia>
<ID>617</ID>
<Latitud>36.59695</Latitud>
<Longitud>-6.227526</Longitud>
</localidad>
<localidad>
<nombre>Puerto Real</nombre>
<IdProvincia>12</IdProvincia>
<ID>618</ID>
<Latitud>36.52912</Latitud>
<Longitud>-6.191895</Longitud>
</localidad>
<localidad>
<nombre>Puerto Serrano</nombre>
<IdProvincia>12</IdProvincia>
<ID>619</ID>
<Latitud>36.92159</Latitud>
<Longitud>-5.545621</Longitud>
</localidad>
<localidad>
<nombre>Rota</nombre>
<IdProvincia>12</IdProvincia>
<ID>620</ID>
<Latitud>36.61699</Latitud>
<Longitud>-6.358202</Longitud>
</localidad>
<localidad>
<nombre>San Fernando</nombre>
<IdProvincia>12</IdProvincia>
<ID>621</ID>
<Latitud>36.46572</Latitud>
<Longitud>-6.196626</Longitud>
</localidad>
<localidad>
<nombre>Sanlúcar de Barrameda</nombre>
<IdProvincia>12</IdProvincia>
<ID>622</ID>
<Latitud>36.77882</Latitud>
<Longitud>-6.354198</Longitud>
</localidad>
<localidad>
<nombre>Villaluenga del Rosario</nombre>
<IdProvincia>12</IdProvincia>
<ID>623</ID>
<Latitud>36.69587</Latitud>
<Longitud>-5.388137</Longitud>
</localidad>
<localidad>
<nombre>Medio Cudeyo</nombre>
<IdProvincia>13</IdProvincia>
<ID>624</ID>
<Latitud>43.38139</Latitud>
<Longitud>-3.731667</Longitud>
</localidad>
<localidad>
<nombre>Reocín</nombre>
<IdProvincia>13</IdProvincia>
<ID>625</ID>
<Latitud>43.34273</Latitud>
<Longitud>-4.095572</Longitud>
</localidad>
<localidad>
<nombre>Torrelavega</nombre>
<IdProvincia>13</IdProvincia>
<ID>626</ID>
<Latitud>43.35146</Latitud>
<Longitud>-4.047017</Longitud>
</localidad>
<localidad>
<nombre>Alcalà de Xivert</nombre>
<IdProvincia>14</IdProvincia>
<ID>627</ID>
<Latitud>40.30459</Latitud>
<Longitud>0.2263053</Longitud>
</localidad>
<localidad>
<nombre>Alcora, l</nombre>
<IdProvincia>14</IdProvincia>
<ID>628</ID>
<Latitud>40.07278</Latitud>
<Longitud>-0.2130235</Longitud>
</localidad>
<localidad>
<nombre>Benicarló</nombre>
<IdProvincia>14</IdProvincia>
<ID>629</ID>
<Latitud>40.4187</Latitud>
<Longitud>0.4231017</Longitud>
</localidad>
<localidad>
<nombre>Benicasim/Benicàssim</nombre>
<IdProvincia>14</IdProvincia>
<ID>630</ID>
<Latitud>40.05554</Latitud>
<Longitud>0.0656074</Longitud>
</localidad>
<localidad>
<nombre>Betxí</nombre>
<IdProvincia>14</IdProvincia>
<ID>631</ID>
<Latitud>39.92623</Latitud>
<Longitud>-0.198169</Longitud>
</localidad>
<localidad>
<nombre>Burriana</nombre>
<IdProvincia>14</IdProvincia>
<ID>632</ID>
<Latitud>39.88987</Latitud>
<Longitud>-0.0836936</Longitud>
</localidad>
<localidad>
<nombre>Cervera del Maestre</nombre>
<IdProvincia>14</IdProvincia>
<ID>633</ID>
<Latitud>40.45456</Latitud>
<Longitud>0.2796835</Longitud>
</localidad>
<localidad>
<nombre>Cinctorres</nombre>
<IdProvincia>14</IdProvincia>
<ID>634</ID>
<Latitud>40.58369</Latitud>
<Longitud>-0.2165387</Longitud>
</localidad>
<localidad>
<nombre>Jérica</nombre>
<IdProvincia>14</IdProvincia>
<ID>635</ID>
<Latitud>39.9134</Latitud>
<Longitud>-0.5725689</Longitud>
</localidad>
<localidad>
<nombre>Moncofa</nombre>
<IdProvincia>14</IdProvincia>
<ID>636</ID>
<Latitud>39.80862</Latitud>
<Longitud>-0.145778</Longitud>
</localidad>
<localidad>
<nombre>Morella</nombre>
<IdProvincia>14</IdProvincia>
<ID>637</ID>
<Latitud>40.619</Latitud>
<Longitud>-0.0977334</Longitud>
</localidad>
<localidad>
<nombre>Onda</nombre>
<IdProvincia>14</IdProvincia>
<ID>638</ID>
<Latitud>39.9653</Latitud>
<Longitud>-0.2626455</Longitud>
</localidad>
<localidad>
<nombre>Segorbe</nombre>
<IdProvincia>14</IdProvincia>
<ID>639</ID>
<Latitud>39.85328</Latitud>
<Longitud>-0.4849939</Longitud>
</localidad>
<localidad>
<nombre>Sueras/Suera</nombre>
<IdProvincia>14</IdProvincia>
<ID>640</ID>
<Latitud>39.95241</Latitud>
<Longitud>-0.3298838</Longitud>
</localidad>
<localidad>
<nombre>Toro, El</nombre>
<IdProvincia>14</IdProvincia>
<ID>641</ID>
<Latitud>39.9672</Latitud>
<Longitud>-0.0537832</Longitud>
</localidad>
<localidad>
<nombre>Torre d&apos;En Besora, la</nombre>
<IdProvincia>14</IdProvincia>
<ID>642</ID>
<Latitud>39.98182</Latitud>
<Longitud>-0.0721205</Longitud>
</localidad>
<localidad>
