<?xml version="1.0" encoding="UTF-8"?>
<localidad>
<nombre>Salas</nombre>
<IdProvincia>6</IdProvincia>
<ID>1</ID>
<latitud>43.40976</latitud>
<longitud>-6.260448</longitud>
</localidad>
<localidad>
<nombre>Salteras</nombre>
<IdProvincia>43</IdProvincia>
<ID>2</ID>
<latitud>37.41824</latitud>
<longitud>-6.111633</longitud>
</localidad>
<localidad>
<nombre>San Bartolomé de la Torre</nombre>
<IdProvincia>23</IdProvincia>
<ID>3</ID>
<latitud>37.44596</latitud>
<longitud>-7.106683</longitud>
</localidad>
<localidad>
<nombre>San José del Valle</nombre>
<IdProvincia>12</IdProvincia>
<ID>4</ID>
<latitud>36.60554</latitud>
<longitud>-5.798952</longitud>
</localidad>
<localidad>
<nombre>San Juan del Monte</nombre>
<IdProvincia>10</IdProvincia>
<ID>5</ID>
<latitud>41.6844</latitud>
<longitud>-3.521135</longitud>
</localidad>
<localidad>
<nombre>San Juan del Puerto</nombre>
<IdProvincia>23</IdProvincia>
<ID>6</ID>
<latitud>37.31416</latitud>
<longitud>-6.840784</longitud>
</localidad>
<localidad>
<nombre>San Lorenzo de El Escorial</nombre>
<IdProvincia>32</IdProvincia>
<ID>7</ID>
<latitud>40.59167</latitud>
<longitud>-4.149123</longitud>
</localidad>
<localidad>
<nombre>San Martín del Rey Aurelio</nombre>
<IdProvincia>6</IdProvincia>
<ID>8</ID>
<latitud>43.27671</latitud>
<longitud>-5.607564</longitud>
</localidad>
<localidad>
<nombre>San Mateo de Gállego</nombre>
<IdProvincia>52</IdProvincia>
<ID>9</ID>
<latitud>41.8306</latitud>
<longitud>-0.7690734</longitud>
</localidad>
<localidad>
<nombre>San Roque</nombre>
<IdProvincia>12</IdProvincia>
<ID>10</ID>
<latitud>36.20975</latitud>
<longitud>-5.384572</longitud>
</localidad>
<localidad>
<nombre>San Tirso de Abres</nombre>
<IdProvincia>6</IdProvincia>
<ID>11</ID>
<latitud>43.409</latitud>
<longitud>-7.143</longitud>
</localidad>
<localidad>
<nombre>Sanlúcar la Mayor</nombre>
<IdProvincia>43</IdProvincia>
<ID>12</ID>
<latitud>37.38578</latitud>
<longitud>-6.201977</longitud>
</localidad>
<localidad>
<nombre>Sant Feliu de Guíxols</nombre>
<IdProvincia>19</IdProvincia>
<ID>13</ID>
<latitud>41.78058</latitud>
<longitud>3.030733</longitud>
</localidad>
<localidad>
<nombre>Sant Quintí de Mediona</nombre>
<IdProvincia>9</IdProvincia>
<ID>14</ID>
<latitud>41.46383</latitud>
<longitud>1.666462</longitud>
</localidad>
<localidad>
<nombre>Santa Bàrbara</nombre>
<IdProvincia>45</IdProvincia>
<ID>15</ID>
<latitud>40.71442</latitud>
<longitud>0.4922784</longitud>
</localidad>
<localidad>
<nombre>Santa Eulalia de Gállego</nombre>
<IdProvincia>52</IdProvincia>
<ID>16</ID>
<latitud>42.28679</latitud>
<longitud>-0.7603972</longitud>
</localidad>
<localidad>
<nombre>Santa Olalla</nombre>
<IdProvincia>47</IdProvincia>
<ID>17</ID>
<latitud>40.02426</latitud>
<longitud>-4.428266</longitud>
</localidad>
<localidad>
<nombre>Santaella</nombre>
<IdProvincia>17</IdProvincia>
<ID>18</ID>
<latitud>37.56627</latitud>
<longitud>-4.845094</longitud>
</localidad>
<localidad>
<nombre>Santander</nombre>
<IdProvincia>13</IdProvincia>
<ID>19</ID>
<latitud>43.46096</latitud>
<longitud>-3.807934</longitud>
</localidad>
<localidad>
<nombre>Santed</nombre>
<IdProvincia>52</IdProvincia>
<ID>20</ID>
<latitud>41.03228</latitud>
<longitud>-1.507787</longitud>
</localidad>
<localidad>
<nombre>Sarrión</nombre>
<IdProvincia>46</IdProvincia>
<ID>21</ID>
<latitud>40.14188</latitud>
<longitud>-0.815191</longitud>
</localidad>
<localidad>
<nombre>Sástago</nombre>
<IdProvincia>52</IdProvincia>
<ID>22</ID>
<latitud>41.3213</latitud>
<longitud>-0.3509796</longitud>
</localidad>
<localidad>
<nombre>Segovia</nombre>
<IdProvincia>42</IdProvincia>
<ID>23</ID>
<latitud>40.94943</latitud>
<longitud>-4.119209</longitud>
</localidad>
<localidad>
<nombre>Sena</nombre>
<IdProvincia>24</IdProvincia>
<ID>24</ID>
<latitud>41.71468</latitud>
<longitud>-0.0437513</longitud>
</localidad>
<localidad>
<nombre>Seròs</nombre>
<IdProvincia>30</IdProvincia>
<ID>25</ID>
<latitud>41.46283</latitud>
<longitud>0.4108175</longitud>
</localidad>
<localidad>
<nombre>Sevilla</nombre>
<IdProvincia>43</IdProvincia>
<ID>26</ID>
<latitud>37.38264</latitud>
<longitud>-5.996295</longitud>
</localidad>
<localidad>
<nombre>Siero</nombre>
<IdProvincia>6</IdProvincia>
<ID>27</ID>
<latitud>43.383</latitud>
<longitud>-5.65</longitud>
</localidad>
<localidad>
<nombre>Siétamo</nombre>
<IdProvincia>24</IdProvincia>
<ID>28</ID>
<latitud>42.12341</latitud>
<longitud>-0.2796467</longitud>
</localidad>
<localidad>
<nombre>Sigüenza</nombre>
<IdProvincia>21</IdProvincia>
<ID>29</ID>
<latitud>41.0696</latitud>
<longitud>-2.642236</longitud>
</localidad>
<localidad>
<nombre>Sigüés</nombre>
<IdProvincia>52</IdProvincia>
<ID>30</ID>
<latitud>42.63047</latitud>
<longitud>-1.012736</longitud>
</localidad>
<localidad>
<nombre>Singra</nombre>
<IdProvincia>46</IdProvincia>
<ID>31</ID>
<latitud>40.65592</latitud>
<longitud>-1.311811</longitud>
</localidad>
<localidad>
<nombre>Soleràs, El</nombre>
<IdProvincia>30</IdProvincia>
<ID>32</ID>
<latitud>41.41253</latitud>
<longitud>0.684953</longitud>
</localidad>
<localidad>
<nombre>Somiedo</nombre>
<IdProvincia>6</IdProvincia>
<ID>33</ID>
<latitud>43.1</latitud>
<longitud>-6.25</longitud>
</localidad>
<localidad>
<nombre>Soto del Barco</nombre>
<IdProvincia>6</IdProvincia>
<ID>34</ID>
<latitud>43.53319</latitud>
<longitud>-6.069166</longitud>
</localidad>
<localidad>
<nombre>Sotonera, La</nombre>
<IdProvincia>24</IdProvincia>
<ID>35</ID>
<latitud>42.25468</latitud>
<longitud>-0.5446912</longitud>
</localidad>
<localidad>
<nombre>Talavera de la Reina</nombre>
<IdProvincia>47</IdProvincia>
<ID>36</ID>
<latitud>39.9598</latitud>
<longitud>-4.834432</longitud>
</localidad>
<localidad>
<nombre>Tamarite de Litera</nombre>
<IdProvincia>24</IdProvincia>
<ID>37</ID>
<latitud>41.86698</latitud>
<longitud>0.4220118</longitud>
</localidad>
<localidad>
<nombre>Tarancón</nombre>
<IdProvincia>18</IdProvincia>
<ID>38</ID>
<latitud>40.01054</latitud>
<longitud>-3.006447</longitud>
</localidad>
<localidad>
<nombre>Tardienta</nombre>
<IdProvincia>24</IdProvincia>
<ID>39</ID>
<latitud>41.97935</latitud>
<longitud>-0.538924</longitud>
</localidad>
<localidad>
<nombre>Tarifa</nombre>
<IdProvincia>12</IdProvincia>
<ID>40</ID>
<latitud>36.01271</latitud>
<longitud>-5.602954</longitud>
</localidad>
<localidad>
<nombre>Tarragona</nombre>
<IdProvincia>45</IdProvincia>
<ID>41</ID>
<latitud>41.11866</latitud>
<longitud>1.24533</longitud>
</localidad>
<localidad>
<nombre>Tauste</nombre>
<IdProvincia>52</IdProvincia>
<ID>42</ID>
<latitud>41.92117</latitud>
<longitud>-1.2554</longitud>
</localidad>
<localidad>
<nombre>Teruel</nombre>
<IdProvincia>46</IdProvincia>
<ID>43</ID>
<latitud>40.34411</latitud>
<longitud>-1.10691</longitud>
</localidad>
<localidad>
<nombre>Teverga</nombre>
<IdProvincia>6</IdProvincia>
<ID>44</ID>
<latitud>43.15</latitud>
<longitud>-6.1</longitud>
</localidad>
<localidad>
<nombre>Tiebas-Muruarte de Reta</nombre>
<IdProvincia>36</IdProvincia>
<ID>45</ID>
<latitud>42.69312</latitud>
<longitud>-1.640636</longitud>
</localidad>
<localidad>
<nombre>Tineo</nombre>
<IdProvincia>6</IdProvincia>
<ID>46</ID>
<latitud>43.33509</latitud>
<longitud>-6.414816</longitud>
</localidad>
<localidad>
<nombre>Toledo</nombre>
<IdProvincia>47</IdProvincia>
<ID>47</ID>
<latitud>39.85678</latitud>
<longitud>-4.024476</longitud>
</localidad>
<localidad>
<nombre>Tolosa</nombre>
<IdProvincia>22</IdProvincia>
<ID>48</ID>
<latitud>43.13698</latitud>
<longitud>-2.073914</longitud>
</localidad>
<localidad>
<nombre>Tolox</nombre>
<IdProvincia>33</IdProvincia>
<ID>49</ID>
<latitud>36.68674</latitud>
<longitud>-4.904676</longitud>
</localidad>
<localidad>
<nombre>Toreno</nombre>
<IdProvincia>29</IdProvincia>
<ID>50</ID>
<latitud>42.70055</latitud>
<longitud>-6.509904</longitud>
</localidad>
<localidad>
<nombre>Torla</nombre>
<IdProvincia>24</IdProvincia>
<ID>51</ID>
<latitud>42.62793</latitud>
<longitud>-0.1106253</longitud>
</localidad>
<localidad>
<nombre>Torre Alháquime</nombre>
<IdProvincia>12</IdProvincia>
<ID>52</ID>
<latitud>36.91553</latitud>
<longitud>-5.234736</longitud>
</localidad>
<localidad>
<nombre>Torre de las Arcas</nombre>
<IdProvincia>46</IdProvincia>
<ID>53</ID>
<latitud>40.84147</latitud>
<longitud>-0.7188649</longitud>
</localidad>
<localidad>
<nombre>Torremejía</nombre>
<IdProvincia>8</IdProvincia>
<ID>54</ID>
<latitud>38.78965</latitud>
<longitud>-6.381672</longitud>
</localidad>
<localidad>
<nombre>Torrevelilla</nombre>
<IdProvincia>46</IdProvincia>
<ID>55</ID>
<latitud>40.90303</latitud>
<longitud>-0.1098415</longitud>
</localidad>
<localidad>
<nombre>Torrico</nombre>
<IdProvincia>47</IdProvincia>
<ID>56</ID>
<latitud>39.83018</latitud>
<longitud>-5.227055</longitud>
</localidad>
<localidad>
<nombre>Torrijos</nombre>
<IdProvincia>47</IdProvincia>
<ID>57</ID>
<latitud>39.98128</latitud>
<longitud>-4.284419</longitud>
</localidad>
<localidad>
<nombre>Torvizcón</nombre>
<IdProvincia>20</IdProvincia>
<ID>58</ID>
<latitud>36.87788</latitud>
<longitud>-3.298552</longitud>
</localidad>
<localidad>
<nombre>Tramacastilla</nombre>
<IdProvincia>46</IdProvincia>
<ID>59</ID>
<latitud>40.43096</latitud>
<longitud>-1.56905</longitud>
</localidad>
<localidad>
<nombre>Trebujena</nombre>
<IdProvincia>12</IdProvincia>
<ID>60</ID>
<latitud>36.86951</latitud>
<longitud>-6.176695</longitud>
</localidad>
<localidad>
<nombre>Tudela</nombre>
<IdProvincia>36</IdProvincia>
<ID>61</ID>
<latitud>42.06388</latitud>
<longitud>-1.605718</longitud>
</localidad>
<localidad>
<nombre>Ubrique</nombre>
<IdProvincia>12</IdProvincia>
<ID>62</ID>
<latitud>36.67771</latitud>
<longitud>-5.446557</longitud>
</localidad>
<localidad>
<nombre>Uncastillo</nombre>
<IdProvincia>52</IdProvincia>
<ID>63</ID>
<latitud>42.3615</latitud>
<longitud>-1.130387</longitud>
</localidad>
<localidad>
<nombre>Utrera</nombre>
<IdProvincia>43</IdProvincia>
<ID>64</ID>
<latitud>37.18142</latitud>
<longitud>-5.781507</longitud>
</localidad>
<localidad>
<nombre>Vadocondes</nombre>
<IdProvincia>10</IdProvincia>
<ID>65</ID>
<latitud>41.63945</latitud>
<longitud>-3.573707</longitud>
</localidad>
<localidad>
<nombre>Val de San Martín</nombre>
<IdProvincia>52</IdProvincia>
<ID>66</ID>
<latitud>41.05718</latitud>
<longitud>-1.446303</longitud>
</localidad>
<localidad>
<nombre>Valdealgorfa</nombre>
<IdProvincia>46</IdProvincia>
<ID>67</ID>
<latitud>40.99085</latitud>
<longitud>-0.0347835</longitud>
</localidad>
<localidad>
<nombre>Valdelinares</nombre>
<IdProvincia>46</IdProvincia>
<ID>68</ID>
<latitud>40.3917</latitud>
<longitud>-0.6063926</longitud>
</localidad>
<localidad>
<nombre>Valdemorillo</nombre>
<IdProvincia>32</IdProvincia>
<ID>69</ID>
<latitud>40.50208</latitud>
<longitud>-4.065841</longitud>
</localidad>
<localidad>
<nombre>Valdepeñas</nombre>
<IdProvincia>16</IdProvincia>
<ID>70</ID>
<latitud>38.76053</latitud>
<longitud>-3.384104</longitud>
</localidad>
<localidad>
<nombre>Valdepolo</nombre>
<IdProvincia>29</IdProvincia>
<ID>71</ID>
<latitud>42.57626</latitud>
<longitud>-5.22613</longitud>
</localidad>
<localidad>
<nombre>Valdés</nombre>
<IdProvincia>6</IdProvincia>
<ID>72</ID>
<latitud>43.54389</latitud>
<longitud>-6.535833</longitud>
</localidad>
<localidad>
<nombre>Valencia</nombre>
<IdProvincia>48</IdProvincia>
<ID>73</ID>
<latitud>39.47024</latitud>
<longitud>-0.3768049</longitud>
</localidad>
<localidad>
<nombre>Valjunquera</nombre>
<IdProvincia>46</IdProvincia>
<ID>74</ID>
<latitud>40.95302</latitud>
<longitud>0.0259745</longitud>
</localidad>
<localidad>
<nombre>Valladolid</nombre>
<IdProvincia>49</IdProvincia>
<ID>75</ID>
<latitud>41.65295</latitud>
<longitud>-4.728388</longitud>
</localidad>
<localidad>
<nombre>Valle de Abdalajís</nombre>
<IdProvincia>33</IdProvincia>
<ID>76</ID>
<latitud>36.93133</latitud>
<longitud>-4.682709</longitud>
</localidad>
<localidad>
<nombre>Valle de Sedano</nombre>
<IdProvincia>10</IdProvincia>
<ID>77</ID>
<latitud>42.71544</latitud>
<longitud>-3.749611</longitud>
</localidad>
<localidad>
<nombre>Valle, El</nombre>
<IdProvincia>20</IdProvincia>
<ID>78</ID>
<latitud>37.28611</latitud>
<longitud>-3.008889</longitud>
</localidad>
<localidad>
<nombre>Valls</nombre>
<IdProvincia>45</IdProvincia>
<ID>79</ID>
<latitud>41.28728</latitud>
<longitud>1.251579</longitud>
</localidad>
<localidad>
<nombre>Vegadeo</nombre>
<IdProvincia>6</IdProvincia>
<ID>80</ID>
<latitud>43.46476</latitud>
<longitud>-7.05106</longitud>
</localidad>
<localidad>
<nombre>Vélez-Málaga</nombre>
<IdProvincia>33</IdProvincia>
<ID>81</ID>
<latitud>36.77864</latitud>
<longitud>-4.100675</longitud>
</localidad>
<localidad>
<nombre>Vendrell, El</nombre>
<IdProvincia>45</IdProvincia>
<ID>82</ID>
<latitud>41.22042</latitud>
<longitud>1.534845</longitud>
</localidad>
<localidad>
<nombre>Vicién</nombre>
<IdProvincia>24</IdProvincia>
<ID>83</ID>
<latitud>42.0555</latitud>
<longitud>-0.4401985</longitud>
</localidad>
<localidad>
<nombre>Vilafranca del Penedès</nombre>
<IdProvincia>9</IdProvincia>
<ID>84</ID>
<latitud>41.34509</latitud>
<longitud>1.699849</longitud>
</localidad>
<localidad>
<nombre>Villafranca de Córdoba</nombre>
<IdProvincia>17</IdProvincia>
<ID>85</ID>
<latitud>37.96193</latitud>
<longitud>-4.545728</longitud>
</localidad>
<localidad>
<nombre>Villafranca Montes de Oca</nombre>
<IdProvincia>10</IdProvincia>
<ID>86</ID>
<latitud>42.38651</latitud>
<longitud>-3.309347</longitud>
</localidad>
<localidad>
<nombre>Villalba de Duero</nombre>
<IdProvincia>10</IdProvincia>
<ID>87</ID>
<latitud>41.6824</latitud>
<longitud>-3.745252</longitud>
</localidad>
<localidad>
<nombre>Villamartín</nombre>
<IdProvincia>12</IdProvincia>
<ID>88</ID>
<latitud>36.86132</latitud>
<longitud>-5.641834</longitud>
</localidad>
<localidad>
<nombre>Villamayor de los Montes</nombre>
<IdProvincia>10</IdProvincia>
<ID>89</ID>
<latitud>42.10576</latitud>
<longitud>-3.766267</longitud>
</localidad>
<localidad>
<nombre>Villamediana</nombre>
<IdProvincia>38</IdProvincia>
<ID>90</ID>
<latitud>42.04987</latitud>
<longitud>-4.361402</longitud>
</localidad>
<localidad>
<nombre>Villanueva de Gállego</nombre>
<IdProvincia>52</IdProvincia>
<ID>91</ID>
<latitud>41.76796</latitud>
<longitud>-0.8275479</longitud>
</localidad>
<localidad>
<nombre>Villanueva de los Castillejos</nombre>
<IdProvincia>23</IdProvincia>
<ID>92</ID>
<latitud>37.50046</latitud>
<longitud>-7.272443</longitud>
</localidad>
<localidad>
<nombre>Villanueva de San Juan</nombre>
<IdProvincia>43</IdProvincia>
<ID>93</ID>
<latitud>37.05036</latitud>
<longitud>-5.175473</longitud>
</localidad>
<localidad>
<nombre>Villanueva del Río y Minas</nombre>
<IdProvincia>43</IdProvincia>
<ID>94</ID>
<latitud>37.6601</latitud>
<longitud>-5.714389</longitud>
</localidad>
<localidad>
<nombre>Villanueva del Rosario</nombre>
<IdProvincia>33</IdProvincia>
<ID>95</ID>
<latitud>36.99622</latitud>
<longitud>-4.364309</longitud>
</localidad>
<localidad>
<nombre>Villanueva del Trabuco</nombre>
<IdProvincia>33</IdProvincia>
<ID>96</ID>
<latitud>37.02825</latitud>
<longitud>-4.338388</longitud>
</localidad>
<localidad>
<nombre>Villarejo de la Peñuela</nombre>
<IdProvincia>18</IdProvincia>
<ID>97</ID>
<latitud>40.08784</latitud>
<longitud>-2.410047</longitud>
</localidad>
<localidad>
<nombre>Villarquemado</nombre>
<IdProvincia>46</IdProvincia>
<ID>98</ID>
<latitud>40.51945</latitud>
<longitud>-1.267652</longitud>
</localidad>
<localidad>
<nombre>Villarrobledo</nombre>
<IdProvincia>3</IdProvincia>
<ID>99</ID>
<latitud>39.26726</latitud>
<longitud>-2.607643</longitud>
</localidad>
<localidad>
<nombre>Villasbuenas de Gata</nombre>
<IdProvincia>11</IdProvincia>
<ID>100</ID>
<latitud>40.1794</latitud>
<longitud>-6.625679</longitud>
</localidad>
<localidad>
<nombre>Villastar</nombre>
<IdProvincia>46</IdProvincia>
<ID>101</ID>
<latitud>40.28053</latitud>
<longitud>-1.152892</longitud>
</localidad>
<localidad>
<nombre>Villaviciosa</nombre>
<IdProvincia>6</IdProvincia>
<ID>102</ID>
<latitud>43.48137</latitud>
<longitud>-5.435346</longitud>
</localidad>
<localidad>
<nombre>Villel</nombre>
<IdProvincia>46</IdProvincia>
<ID>103</ID>
<latitud>40.23469</latitud>
<longitud>-1.187274</longitud>
</localidad>
<localidad>
<nombre>Vitoria-Gasteiz</nombre>
<IdProvincia>2</IdProvincia>
<ID>104</ID>
<latitud>42.84641</latitud>
<longitud>-2.667893</longitud>
</localidad>
<localidad>
<nombre>Víznar</nombre>
<IdProvincia>20</IdProvincia>
<ID>105</ID>
<latitud>37.23108</latitud>
<longitud>-3.553835</longitud>
</localidad>
<localidad>
<nombre>Yebra de Basa</nombre>
<IdProvincia>24</IdProvincia>
<ID>106</ID>
<latitud>42.48631</latitud>
<longitud>-0.2820295</longitud>
</localidad>
<localidad>
<nombre>Yerri</nombre>
<IdProvincia>36</IdProvincia>
<ID>107</ID>
<latitud>42.71667</latitud>
<longitud>-2</longitud>
</localidad>
<localidad>
<nombre>Zalamea la Real</nombre>
<IdProvincia>23</IdProvincia>
<ID>108</ID>
<latitud>37.67891</latitud>
<longitud>-6.660578</longitud>
</localidad>
<localidad>
<nombre>Zaragoza</nombre>
<IdProvincia>52</IdProvincia>
<ID>109</ID>
<latitud>41.65629</latitud>
<longitud>-0.8765379</longitud>
</localidad>
<localidad>
<nombre>Zigoitia</nombre>
<IdProvincia>2</IdProvincia>
<ID>110</ID>
<latitud>42.9682</latitud>
<longitud>-2.7183</longitud>
</localidad>
<localidad>
<nombre>Zufre</nombre>
<IdProvincia>23</IdProvincia>
<ID>111</ID>
<latitud>37.83384</latitud>
<longitud>-6.338613</longitud>
</localidad>
<localidad>
<nombre>Adamuz</nombre>
<IdProvincia>17</IdProvincia>
<ID>112</ID>
<latitud>38.02736</latitud>
<longitud>-4.524873</longitud>
</localidad>
<localidad>
<nombre>Adrada de Haza</nombre>
<IdProvincia>10</IdProvincia>
<ID>113</ID>
<latitud>41.59426</latitud>
<longitud>-3.821794</longitud>
</localidad>
<localidad>
<nombre>Aguadulce</nombre>
<IdProvincia>43</IdProvincia>
<ID>114</ID>
<latitud>37.25283</latitud>
<longitud>-4.991125</longitud>
</localidad>
<localidad>
<nombre>Agüero</nombre>
<IdProvincia>24</IdProvincia>
<ID>115</ID>
<latitud>42.35485</latitud>
<longitud>-0.7945753</longitud>
</localidad>
<localidad>
<nombre>Albacete</nombre>
<IdProvincia>3</IdProvincia>
<ID>116</ID>
<latitud>38.99765</latitud>
<longitud>-1.86007</longitud>
</localidad>
<localidad>
<nombre>Albarracín</nombre>
<IdProvincia>46</IdProvincia>
<ID>117</ID>
<latitud>40.40652</latitud>
<longitud>-1.444402</longitud>
</localidad>
<localidad>
<nombre>Alcalá de la Selva</nombre>
<IdProvincia>46</IdProvincia>
<ID>118</ID>
<latitud>40.37181</latitud>
<longitud>-0.7197202</longitud>
</localidad>
<localidad>
<nombre>Alcalá del Río</nombre>
<IdProvincia>43</IdProvincia>
<ID>119</ID>
<latitud>37.51827</latitud>
<longitud>-5.978236</longitud>
</localidad>
<localidad>
<nombre>Alcañiz</nombre>
<IdProvincia>46</IdProvincia>
<ID>120</ID>
<latitud>41.04895</latitud>
<longitud>-0.1306302</longitud>
</localidad>
<localidad>
<nombre>Alcaudete de la Jara</nombre>
<IdProvincia>47</IdProvincia>
<ID>121</ID>
<latitud>39.79322</latitud>
<longitud>-4.870331</longitud>
</localidad>
<localidad>
<nombre>Alcázar de San Juan</nombre>
<IdProvincia>16</IdProvincia>
<ID>122</ID>
<latitud>39.38993</latitud>
<longitud>-3.210137</longitud>
</localidad>
<localidad>
<nombre>Alcubierre</nombre>
<IdProvincia>24</IdProvincia>
<ID>123</ID>
<latitud>41.8068</latitud>
<longitud>-0.4514643</longitud>
</localidad>
<localidad>
<nombre>Aldeaseca</nombre>
<IdProvincia>7</IdProvincia>
<ID>124</ID>
<latitud>41.04952</latitud>
<longitud>-4.817433</longitud>
</localidad>
<localidad>
<nombre>Alfarnatejo</nombre>
<IdProvincia>33</IdProvincia>
<ID>125</ID>
<latitud>36.97935</latitud>
<longitud>-4.272528</longitud>
</localidad>
<localidad>
<nombre>Alhama de Aragón</nombre>
<IdProvincia>52</IdProvincia>
<ID>126</ID>
<latitud>41.29637</latitud>
<longitud>-1.894019</longitud>
</localidad>
<localidad>
<nombre>Alhama de Granada</nombre>
<IdProvincia>20</IdProvincia>
<ID>127</ID>
<latitud>37.00252</latitud>
<longitud>-3.988389</longitud>
</localidad>
<localidad>
<nombre>Almansa</nombre>
<IdProvincia>3</IdProvincia>
<ID>128</ID>
<latitud>38.86941</latitud>
<longitud>-1.097517</longitud>
</localidad>
<localidad>
<nombre>Almazora/Almassora</nombre>
<IdProvincia>14</IdProvincia>
<ID>129</ID>
<latitud>39.94497</latitud>
<longitud>-0.0633176</longitud>
</localidad>
<localidad>
<nombre>Almería</nombre>
<IdProvincia>5</IdProvincia>
<ID>130</ID>
<latitud>36.84016</latitud>
<longitud>-2.467922</longitud>
</localidad>
<localidad>
<nombre>Almodóvar del Río</nombre>
<IdProvincia>17</IdProvincia>
<ID>131</ID>
<latitud>37.80959</latitud>
<longitud>-5.019958</longitud>
</localidad>
<localidad>
<nombre>Almuñécar</nombre>
<IdProvincia>20</IdProvincia>
<ID>132</ID>
<latitud>36.73454</latitud>
<longitud>-3.690736</longitud>
</localidad>
<localidad>
<nombre>Alpartir</nombre>
<IdProvincia>52</IdProvincia>
<ID>133</ID>
<latitud>41.42068</latitud>
<longitud>-1.382381</longitud>
</localidad>
<localidad>
<nombre>Amorebieta-Etxano</nombre>
<IdProvincia>50</IdProvincia>
<ID>134</ID>
<latitud>43.2205</latitud>
<longitud>-2.733236</longitud>
</localidad>
<localidad>
<nombre>Ampudia</nombre>
<IdProvincia>38</IdProvincia>
<ID>135</ID>
<latitud>41.91397</latitud>
<longitud>-4.780129</longitud>
</localidad>
<localidad>
<nombre>Amurrio</nombre>
<IdProvincia>2</IdProvincia>
<ID>136</ID>
<latitud>43.05265</latitud>
<longitud>-3.001022</longitud>
</localidad>
<localidad>
<nombre>Andosilla</nombre>
<IdProvincia>36</IdProvincia>
<ID>137</ID>
<latitud>42.37699</latitud>
<longitud>-1.942034</longitud>
</localidad>
<localidad>
<nombre>Antequera</nombre>
<IdProvincia>33</IdProvincia>
<ID>138</ID>
<latitud>37.01938</latitud>
<longitud>-4.562885</longitud>
</localidad>
<localidad>
<nombre>Aranda de Duero</nombre>
<IdProvincia>10</IdProvincia>
<ID>139</ID>
<latitud>41.67171</latitud>
<longitud>-3.686569</longitud>
</localidad>
<localidad>
<nombre>Arcos de la Frontera</nombre>
<IdProvincia>12</IdProvincia>
<ID>140</ID>
<latitud>36.75078</latitud>
<longitud>-5.812395</longitud>
</localidad>
<localidad>
<nombre>Arcos de la Sierra</nombre>
<IdProvincia>18</IdProvincia>
<ID>141</ID>
<latitud>40.3467</latitud>
<longitud>-2.112911</longitud>
</localidad>
<localidad>
<nombre>Arganda del Rey</nombre>
<IdProvincia>32</IdProvincia>
<ID>142</ID>
<latitud>40.30095</latitud>
<longitud>-3.43808</longitud>
</localidad>
<localidad>
<nombre>Argavieso</nombre>
<IdProvincia>24</IdProvincia>
<ID>143</ID>
<latitud>42.05301</latitud>
<longitud>-0.2790706</longitud>
</localidad>
<localidad>
<nombre>Arjona</nombre>
<IdProvincia>26</IdProvincia>
<ID>144</ID>
<latitud>37.93648</latitud>
<longitud>-4.054891</longitud>
</localidad>
<localidad>
<nombre>Arraia-Maeztu</nombre>
<IdProvincia>2</IdProvincia>
<ID>145</ID>
<latitud>42.73981</latitud>
<longitud>-2.44598</longitud>
</localidad>
<localidad>
<nombre>Arriate</nombre>
<IdProvincia>33</IdProvincia>
<ID>146</ID>
<latitud>36.79936</latitud>
<longitud>-5.140064</longitud>
</localidad>
<localidad>
<nombre>Asso-Veral</nombre>
<IdProvincia>52</IdProvincia>
<ID>147</ID>
<latitud>42.6185355</latitud>
<longitud>-0.9311183</longitud>
</localidad>
<localidad>
<nombre>Astorga</nombre>
<IdProvincia>29</IdProvincia>
<ID>148</ID>
<latitud>42.4589</latitud>
<longitud>-6.063526</longitud>
</localidad>
<localidad>
<nombre>Ateca</nombre>
<IdProvincia>52</IdProvincia>
<ID>149</ID>
<latitud>41.33101</latitud>
<longitud>-1.793537</longitud>
</localidad>
<localidad>
<nombre>Avilés</nombre>
<IdProvincia>6</IdProvincia>
<ID>150</ID>
<latitud>43.55577</latitud>
<longitud>-5.927617</longitud>
</localidad>
<localidad>
<nombre>Ayerbe</nombre>
<IdProvincia>24</IdProvincia>
<ID>151</ID>
<latitud>42.27497</latitud>
<longitud>-0.6887537</longitud>
</localidad>
<localidad>
<nombre>Azaila</nombre>
<IdProvincia>46</IdProvincia>
<ID>152</ID>
<latitud>41.29047</latitud>
<longitud>-0.4952874</longitud>
</localidad>
<localidad>
<nombre>Aznalcóllar</nombre>
<IdProvincia>43</IdProvincia>
<ID>153</ID>
<latitud>37.52354</latitud>
<longitud>-6.269565</longitud>
</localidad>
<localidad>
<nombre>Azuara</nombre>
<IdProvincia>52</IdProvincia>
<ID>154</ID>
<latitud>41.25877</latitud>
<longitud>-0.8684728</longitud>
</localidad>
<localidad>
<nombre>Badajoz</nombre>
<IdProvincia>8</IdProvincia>
<ID>155</ID>
<latitud>38.8786</latitud>
<longitud>-6.970284</longitud>
</localidad>
<localidad>
<nombre>Badolatosa</nombre>
<IdProvincia>43</IdProvincia>
<ID>156</ID>
<latitud>37.30871</latitud>
<longitud>-4.672858</longitud>
</localidad>
<localidad>
<nombre>Baena</nombre>
<IdProvincia>17</IdProvincia>
<ID>157</ID>
<latitud>37.61441</latitud>
<longitud>-4.326089</longitud>
</localidad>
<localidad>
<nombre>Balmaseda</nombre>
<IdProvincia>50</IdProvincia>
<ID>158</ID>
<latitud>43.19287</latitud>
<longitud>-3.196942</longitud>
</localidad>
<localidad>
<nombre>Barbastro</nombre>
<IdProvincia>24</IdProvincia>
<ID>159</ID>
<latitud>42.0348</latitud>
<longitud>0.1239805</longitud>
</localidad>
<localidad>
<nombre>Barcelona</nombre>
<IdProvincia>9</IdProvincia>
<ID>160</ID>
<latitud>41.38792</latitud>
<longitud>2.169919</longitud>
</localidad>
<localidad>
<nombre>Barchín del Hoyo</nombre>
<IdProvincia>18</IdProvincia>
<ID>161</ID>
<latitud>39.66472</latitud>
<longitud>-2.069453</longitud>
</localidad>
<localidad>
<nombre>Barcones</nombre>
<IdProvincia>44</IdProvincia>
<ID>162</ID>
<latitud>41.29187</latitud>
<longitud>-2.816489</longitud>
</localidad>
<localidad>
<nombre>Beas</nombre>
<IdProvincia>23</IdProvincia>
<ID>163</ID>
<latitud>37.42592</latitud>
<longitud>-6.792988</longitud>
</localidad>
<localidad>
<nombre>Belchite</nombre>
<IdProvincia>52</IdProvincia>
<ID>164</ID>
<latitud>41.3061</latitud>
<longitud>-0.7543449</longitud>
</localidad>
<localidad>
<nombre>Belmez</nombre>
<IdProvincia>17</IdProvincia>
<ID>165</ID>
<latitud>38.27234</latitud>
<longitud>-5.208753</longitud>
</localidad>
<localidad>
<nombre>Belmonte de Miranda</nombre>
<IdProvincia>6</IdProvincia>
<ID>166</ID>
<latitud>43.28253</latitud>
<longitud>-6.218905</longitud>
</localidad>
<localidad>
<nombre>Benabarre</nombre>
<IdProvincia>24</IdProvincia>
<ID>167</ID>
<latitud>42.10639</latitud>
<longitud>0.4791799</longitud>
</localidad>
<localidad>
<nombre>Benacazón</nombre>
<IdProvincia>43</IdProvincia>
<ID>168</ID>
<latitud>37.35343</latitud>
<longitud>-6.199005</longitud>
</localidad>
<localidad>
<nombre>Benalup</nombre>
<IdProvincia>12</IdProvincia>
<ID>169</ID>
<latitud>36.34284</latitud>
<longitud>-5.8094</longitud>
</localidad>
<localidad>
<nombre>Benaocaz</nombre>
<IdProvincia>12</IdProvincia>
<ID>170</ID>
<latitud>36.69952</latitud>
<longitud>-5.421263</longitud>
</localidad>
<localidad>
<nombre>Benasque</nombre>
<IdProvincia>24</IdProvincia>
<ID>171</ID>
<latitud>42.60514</latitud>
<longitud>0.5239731</longitud>
</localidad>
<localidad>
<nombre>Bera/Vera de Bidasoa</nombre>
<IdProvincia>36</IdProvincia>
<ID>172</ID>
<latitud>43.28069</latitud>
<longitud>-1.682699</longitud>
</localidad>
<localidad>
<nombre>Bercial de Zapardiel</nombre>
<IdProvincia>7</IdProvincia>
<ID>173</ID>
<latitud>41.04642</latitud>
<longitud>-4.969301</longitud>
</localidad>
<localidad>
<nombre>Berrioplano</nombre>
<IdProvincia>36</IdProvincia>
<ID>174</ID>
<latitud>42.85239</latitud>
<longitud>-1.692535</longitud>
</localidad>
<localidad>
<nombre>Biescas</nombre>
<IdProvincia>24</IdProvincia>
<ID>175</ID>
<latitud>42.62798</latitud>
<longitud>-0.3246984</longitud>
</localidad>
<localidad>
<nombre>Bimenes</nombre>
<IdProvincia>6</IdProvincia>
<ID>176</ID>
<latitud>43.3307</latitud>
<longitud>-5.564885</longitud>
</localidad>
<localidad>
<nombre>Biscarrués</nombre>
<IdProvincia>24</IdProvincia>
<ID>177</ID>
<latitud>42.22821</latitud>
<longitud>-0.7515044</longitud>
</localidad>
<localidad>
<nombre>Boltaña</nombre>
<IdProvincia>24</IdProvincia>
<ID>178</ID>
<latitud>42.44247</latitud>
<longitud>0.0698157</longitud>
</localidad>
<localidad>
<nombre>Borja</nombre>
<IdProvincia>52</IdProvincia>
<ID>179</ID>
<latitud>41.83517</latitud>
<longitud>-1.531878</longitud>
</localidad>
<localidad>
<nombre>Bosque, El</nombre>
<IdProvincia>12</IdProvincia>
<ID>180</ID>
<latitud>36.75752</latitud>
<longitud>-5.506988</longitud>
</localidad>
<localidad>
<nombre>Brunete</nombre>
<IdProvincia>32</IdProvincia>
<ID>181</ID>
<latitud>40.40554</latitud>
<longitud>-3.997736</longitud>
</localidad>
<localidad>
<nombre>Bujalance</nombre>
<IdProvincia>17</IdProvincia>
<ID>182</ID>
<latitud>37.89657</latitud>
<longitud>-4.383588</longitud>
</localidad>
<localidad>
<nombre>Burón</nombre>
<IdProvincia>29</IdProvincia>
<ID>183</ID>
<latitud>43.02356</latitud>
<longitud>-5.051342</longitud>
</localidad>
<localidad>
<nombre>Cabezas Rubias</nombre>
<IdProvincia>23</IdProvincia>
<ID>184</ID>
<latitud>37.7265</latitud>
<longitud>-7.087451</longitud>
</localidad>
<localidad>
<nombre>Cabrales</nombre>
<IdProvincia>6</IdProvincia>
<ID>185</ID>
<latitud>43.3</latitud>
<longitud>-4.8</longitud>
</localidad>
<localidad>
<nombre>Cádiz</nombre>
<IdProvincia>12</IdProvincia>
<ID>186</ID>
<latitud>36.52969</latitud>
<longitud>-6.292657</longitud>
</localidad>
<localidad>
<nombre>Cadreita</nombre>
<IdProvincia>36</IdProvincia>
<ID>187</ID>
<latitud>42.21754</latitud>
<longitud>-1.695602</longitud>
</localidad>
<localidad>
<nombre>Calaceite</nombre>
<IdProvincia>46</IdProvincia>
<ID>188</ID>
<latitud>41.01737</latitud>
<longitud>0.1883228</longitud>
</localidad>
<localidad>
<nombre>Calamocha</nombre>
<IdProvincia>46</IdProvincia>
<ID>189</ID>
<latitud>40.92026</latitud>
<longitud>-1.300972</longitud>
</localidad>
<localidad>
<nombre>Calamonte</nombre>
<IdProvincia>8</IdProvincia>
<ID>190</ID>
<latitud>38.88998</latitud>
<longitud>-6.385029</longitud>
</localidad>
<localidad>
<nombre>Calanda</nombre>
<IdProvincia>46</IdProvincia>
<ID>191</ID>
<latitud>40.94182</latitud>
<longitud>-0.2341148</longitud>
</localidad>
<localidad>
<nombre>Calatayud</nombre>
<IdProvincia>52</IdProvincia>
<ID>192</ID>
<latitud>41.35432</latitud>
<longitud>-1.647009</longitud>
</localidad>
<localidad>
<nombre>Caldearenas</nombre>
<IdProvincia>24</IdProvincia>
<ID>193</ID>
<latitud>42.39699</latitud>
<longitud>-0.4999619</longitud>
</localidad>
<localidad>
<nombre>Calera y Chozas</nombre>
<IdProvincia>47</IdProvincia>
<ID>194</ID>
<latitud>39.88144</latitud>
<longitud>-4.978609</longitud>
</localidad>
<localidad>
<nombre>Campillo de Llerena</nombre>
<IdProvincia>8</IdProvincia>
<ID>195</ID>
<latitud>38.50023</latitud>
<longitud>-5.831132</longitud>
</localidad>
<localidad>
<nombre>Campillos</nombre>
<IdProvincia>33</IdProvincia>
<ID>196</ID>
<latitud>37.04541</latitud>
<longitud>-4.861525</longitud>
</localidad>
<localidad>
<nombre>Camponaraya</nombre>
<IdProvincia>29</IdProvincia>
<ID>197</ID>
<latitud>42.58083</latitud>
<longitud>-6.670298</longitud>
</localidad>
<localidad>
<nombre>Candamo</nombre>
<IdProvincia>6</IdProvincia>
<ID>198</ID>
<latitud>43.44661</latitud>
<longitud>-6.058167</longitud>
</localidad>
<localidad>
<nombre>Candeleda</nombre>
<IdProvincia>7</IdProvincia>
<ID>199</ID>
<latitud>40.15509</latitud>
<longitud>-5.239784</longitud>
</localidad>
<localidad>
<nombre>Cangas de Onís</nombre>
<IdProvincia>6</IdProvincia>
<ID>200</ID>
<latitud>43.3485</latitud>
<longitud>-5.126967</longitud>
</localidad>
<localidad>
<nombre>Cangas del Narcea</nombre>
<IdProvincia>6</IdProvincia>
<ID>201</ID>
<latitud>43.17706</latitud>
<longitud>-6.549129</longitud>
</localidad>
<localidad>
<nombre>Cañete la Real</nombre>
<IdProvincia>33</IdProvincia>
<ID>202</ID>
<latitud>36.95146</latitud>
<longitud>-5.024308</longitud>
</localidad>
<localidad>
<nombre>Cañizares</nombre>
<IdProvincia>18</IdProvincia>
<ID>203</ID>
<latitud>40.51731</latitud>
<longitud>-2.192938</longitud>
</localidad>
<localidad>
<nombre>Cariñena</nombre>
<IdProvincia>52</IdProvincia>
<ID>204</ID>
<latitud>41.33694</latitud>
<longitud>-1.224118</longitud>
</localidad>
<localidad>
<nombre>Carlota, La</nombre>
<IdProvincia>17</IdProvincia>
<ID>205</ID>
<latitud>37.67361</latitud>
<longitud>-4.932553</longitud>
</localidad>
<localidad>
<nombre>Carmona</nombre>
<IdProvincia>43</IdProvincia>
<ID>206</ID>
<latitud>37.47102</latitud>
<longitud>-5.642328</longitud>
</localidad>
<localidad>
<nombre>Carpio de Tajo, El</nombre>
<IdProvincia>47</IdProvincia>
<ID>207</ID>
<latitud>39.88752</latitud>
<longitud>-4.45466</longitud>
</localidad>
<localidad>
<nombre>Carpio, El</nombre>
<IdProvincia>17</IdProvincia>
<ID>208</ID>
<latitud>37.94054</latitud>
<longitud>-4.498775</longitud>
</localidad>
<localidad>
<nombre>Carranza</nombre>
<IdProvincia>50</IdProvincia>
<ID>209</ID>
<latitud>43.22528</latitud>
<longitud>-3.359444</longitud>
</localidad>
<localidad>
<nombre>Casarabonela</nombre>
<IdProvincia>33</IdProvincia>
<ID>210</ID>
<latitud>36.78524</latitud>
<longitud>-4.842167</longitud>
</localidad>
<localidad>
<nombre>Casares</nombre>
<IdProvincia>33</IdProvincia>
<ID>211</ID>
<latitud>36.44333</latitud>
<longitud>-5.273519</longitud>
</localidad>
<localidad>
<nombre>Caso</nombre>
<IdProvincia>6</IdProvincia>
<ID>212</ID>
<latitud>43.18333</latitud>
<longitud>-5.35</longitud>
</localidad>
<localidad>
<nombre>Caspe</nombre>
<IdProvincia>52</IdProvincia>
<ID>213</ID>
<latitud>41.234</latitud>
<longitud>-0.0440777</longitud>
</localidad>
<localidad>
<nombre>Castellar de la Frontera</nombre>
<IdProvincia>12</IdProvincia>
<ID>214</ID>
<latitud>36.28621</latitud>
<longitud>-5.419937</longitud>
</localidad>
<localidad>
<nombre>Castellón de la Plana/Castelló de la Plana</nombre>
<IdProvincia>14</IdProvincia>
<ID>215</ID>
<latitud>39.98598</latitud>
<longitud>-0.0376709</longitud>
</localidad>
<localidad>
<nombre>Castellote</nombre>
<IdProvincia>46</IdProvincia>
<ID>216</ID>
<latitud>40.80043</latitud>
<longitud>-0.3202745</longitud>
</localidad>
<localidad>
<nombre>Castilleja del Campo</nombre>
<IdProvincia>43</IdProvincia>
<ID>217</ID>
<latitud>37.38591</latitud>
<longitud>-6.33445</longitud>
</localidad>
<localidad>
<nombre>Castillo de las Guardas, El</nombre>
<IdProvincia>43</IdProvincia>
<ID>218</ID>
<latitud>37.6916</latitud>
<longitud>-6.314299</longitud>
</localidad>
<localidad>
<nombre>Castrillón</nombre>
<IdProvincia>6</IdProvincia>
<ID>219</ID>
<latitud>43.55</latitud>
<longitud>-5.967</longitud>
</localidad>
<localidad>
<nombre>Castrocontrigo</nombre>
<IdProvincia>29</IdProvincia>
<ID>220</ID>
<latitud>42.183</latitud>
<longitud>-6.188392</longitud>
</localidad>
<localidad>
<nombre>Castropol</nombre>
<IdProvincia>6</IdProvincia>
<ID>221</ID>
<latitud>43.52812</latitud>
<longitud>-7.030118</longitud>
</localidad>
<localidad>
<nombre>Castro-Urdiales</nombre>
<IdProvincia>13</IdProvincia>
<ID>222</ID>
<latitud>43.38277</latitud>
<longitud>-3.21957</longitud>
</localidad>
<localidad>
<nombre>Cella</nombre>
<IdProvincia>46</IdProvincia>
<ID>223</ID>
<latitud>40.4551</latitud>
<longitud>-1.286764</longitud>
</localidad>
<localidad>
<nombre>Cerro de Andévalo, El</nombre>
<IdProvincia>23</IdProvincia>
<ID>224</ID>
<latitud>37.73519</latitud>
<longitud>-6.938734</longitud>
</localidad>
<localidad>
<nombre>Chinchilla de Monte-Aragón</nombre>
<IdProvincia>3</IdProvincia>
<ID>225</ID>
<latitud>38.91862</latitud>
<longitud>-1.722758</longitud>
</localidad>
<localidad>
<nombre>Cincovillas</nombre>
<IdProvincia>21</IdProvincia>
<ID>226</ID>
<latitud>41.20544</latitud>
<longitud>-2.818308</longitud>
</localidad>
<localidad>
<nombre>Coaña</nombre>
<IdProvincia>6</IdProvincia>
<ID>227</ID>
<latitud>43.51527</latitud>
<longitud>-6.750185</longitud>
</localidad>
<localidad>
<nombre>Codo</nombre>
<IdProvincia>52</IdProvincia>
<ID>228</ID>
<latitud>41.33324</latitud>
<longitud>-0.6999325</longitud>
</localidad>
<localidad>
<nombre>Constantina</nombre>
<IdProvincia>43</IdProvincia>
<ID>229</ID>
<latitud>37.87227</latitud>
<longitud>-5.619115</longitud>
</localidad>
<localidad>
<nombre>Córdoba</nombre>
<IdProvincia>17</IdProvincia>
<ID>230</ID>
<latitud>37.88473</latitud>
<longitud>-4.779152</longitud>
</localidad>
<localidad>
<nombre>Corteconcepción</nombre>
<IdProvincia>23</IdProvincia>
<ID>231</ID>
<latitud>37.89585</latitud>
<longitud>-6.505878</longitud>
</localidad>
<localidad>
<nombre>Cuarte de Huerva</nombre>
<IdProvincia>52</IdProvincia>
<ID>232</ID>
<latitud>41.59271</latitud>
<longitud>-0.9310773</longitud>
</localidad>
<localidad>
<nombre>Cubillos del Sil</nombre>
<IdProvincia>29</IdProvincia>
<ID>233</ID>
<latitud>42.62387</latitud>
<longitud>-6.563678</longitud>
</localidad>
<localidad>
<nombre>Cudillero</nombre>
<IdProvincia>6</IdProvincia>
<ID>234</ID>
<latitud>43.56096</latitud>
<longitud>-6.144997</longitud>
</localidad>
<localidad>
<nombre>Cuenca</nombre>
<IdProvincia>18</IdProvincia>
<ID>235</ID>
<latitud>40.07183</latitud>
<longitud>-2.134005</longitud>
</localidad>
<localidad>
<nombre>Cuevas de San Marcos</nombre>
<IdProvincia>33</IdProvincia>
<ID>236</ID>
<latitud>37.26963</latitud>
<longitud>-4.414079</longitud>
</localidad>
<localidad>
<nombre>Daroca</nombre>
<IdProvincia>52</IdProvincia>
<ID>237</ID>
<latitud>41.11533</latitud>
<longitud>-1.413934</longitud>
</localidad>
<localidad>
<nombre>Deba</nombre>
<IdProvincia>22</IdProvincia>
<ID>238</ID>
<latitud>43.29556</latitud>
<longitud>-2.353894</longitud>
</localidad>
<localidad>
<nombre>Donostia-San Sebastián</nombre>
<IdProvincia>22</IdProvincia>
<ID>239</ID>
<latitud>43.32074</latitud>
<longitud>-1.984421</longitud>
</localidad>
<localidad>
<nombre>Dos Hermanas</nombre>
<IdProvincia>43</IdProvincia>
<ID>240</ID>
<latitud>37.28318</latitud>
<longitud>-5.922242</longitud>
</localidad>
<localidad>
<nombre>Écija</nombre>
<IdProvincia>43</IdProvincia>
<ID>241</ID>
<latitud>37.54093</latitud>
<longitud>-5.079953</longitud>
</localidad>
<localidad>
<nombre>Ejea de los Caballeros</nombre>
<IdProvincia>52</IdProvincia>
<ID>242</ID>
<latitud>42.12921</latitud>
<longitud>-1.137434</longitud>
</localidad>
<localidad>
<nombre>Ejulve</nombre>
<IdProvincia>46</IdProvincia>
<ID>243</ID>
<latitud>40.77497</latitud>
<longitud>-0.5545593</longitud>
</localidad>
<localidad>
<nombre>Elgeta</nombre>
<IdProvincia>22</IdProvincia>
<ID>244</ID>
<latitud>43.13657</latitud>
<longitud>-2.487392</longitud>
</localidad>
<localidad>
<nombre>Elgoibar</nombre>
<IdProvincia>22</IdProvincia>
<ID>245</ID>
<latitud>43.21519</latitud>
<longitud>-2.415703</longitud>
</localidad>
<localidad>
<nombre>Espartinas</nombre>
<IdProvincia>43</IdProvincia>
<ID>246</ID>
<latitud>37.37997</latitud>
<longitud>-6.123577</longitud>
</localidad>
<localidad>
<nombre>Espejo</nombre>
<IdProvincia>17</IdProvincia>
<ID>247</ID>
<latitud>37.68211</latitud>
<longitud>-4.552363</longitud>
</localidad>
<localidad>
<nombre>Espiel</nombre>
<IdProvincia>17</IdProvincia>
<ID>248</ID>
<latitud>38.18865</latitud>
<longitud>-5.018202</longitud>
</localidad>
<localidad>
<nombre>Espinosa de los Monteros</nombre>
<IdProvincia>10</IdProvincia>
<ID>249</ID>
<latitud>43.07687</latitud>
<longitud>-3.552301</longitud>
</localidad>
<localidad>
<nombre>Esplús</nombre>
<IdProvincia>24</IdProvincia>
<ID>250</ID>
<latitud>41.79845</latitud>
<longitud>0.2743229</longitud>
</localidad>
<localidad>
<nombre>Estépar</nombre>
<IdProvincia>10</IdProvincia>
<ID>251</ID>
<latitud>42.2767</latitud>
<longitud>-3.89849</longitud>
</localidad>
<localidad>
<nombre>Estepona</nombre>
<IdProvincia>33</IdProvincia>
<ID>252</ID>
<latitud>36.42477</latitud>
<longitud>-5.144903</longitud>
</localidad>
<localidad>
<nombre>Eulate</nombre>
<IdProvincia>36</IdProvincia>
<ID>253</ID>
<latitud>42.77654</latitud>
<longitud>-2.208038</longitud>
</localidad>
<localidad>
<nombre>Farlete</nombre>
<IdProvincia>52</IdProvincia>
<ID>254</ID>
<latitud>41.68092</latitud>
<longitud>-0.5062719</longitud>
</localidad>
<localidad>
<nombre>Feria</nombre>
<IdProvincia>8</IdProvincia>
<ID>255</ID>
<latitud>38.51197</latitud>
<longitud>-6.564341</longitud>
</localidad>
<localidad>
<nombre>Ferreruela</nombre>
<IdProvincia>51</IdProvincia>
<ID>256</ID>
<latitud>41.76718</latitud>
<longitud>-6.071509</longitud>
</localidad>
<localidad>
<nombre>Figueres</nombre>
<IdProvincia>19</IdProvincia>
<ID>257</ID>
<latitud>42.2675</latitud>
<longitud>2.96084</longitud>
</localidad>
<localidad>
<nombre>Figueruelas</nombre>
<IdProvincia>52</IdProvincia>
<ID>258</ID>
<latitud>41.76659</latitud>
<longitud>-1.175401</longitud>
</localidad>
<localidad>
<nombre>Font de la Figuera, la</nombre>
<IdProvincia>48</IdProvincia>
<ID>259</ID>
<latitud>38.80746</latitud>
<longitud>-0.8817337</longitud>
</localidad>
<localidad>
<nombre>Fraga</nombre>
<IdProvincia>24</IdProvincia>
<ID>260</ID>
<latitud>41.52243</latitud>
<longitud>0.3489263</longitud>
</localidad>
<localidad>
<nombre>Frasno, El</nombre>
<IdProvincia>52</IdProvincia>
<ID>261</ID>
<latitud>41.41514</latitud>
<longitud>-1.494563</longitud>
</localidad>
<localidad>
<nombre>Fuencaliente de la Palma</nombre>
<IdProvincia>41</IdProvincia>
<ID>262</ID>
<latitud>28.4885</latitud>
<longitud>-17.84942</longitud>
</localidad>
<localidad>
<nombre>Fuendetodos</nombre>
<IdProvincia>52</IdProvincia>
<ID>263</ID>
<latitud>41.34285</latitud>
<longitud>-0.9598514</longitud>
</localidad>
<localidad>
<nombre>Fuengirola</nombre>
<IdProvincia>33</IdProvincia>
<ID>264</ID>
<latitud>36.53901</latitud>
<longitud>-4.624353</longitud>
</localidad>
<localidad>
<nombre>Fuertescusa</nombre>
<IdProvincia>18</IdProvincia>
<ID>265</ID>
<latitud>40.47557</latitud>
<longitud>-2.17581</longitud>
</localidad>
<localidad>
<nombre>Fustiñana</nombre>
<IdProvincia>36</IdProvincia>
<ID>266</ID>
<latitud>42.0199</latitud>
<longitud>-1.486246</longitud>
</localidad>
<localidad>
<nombre>Galdakao</nombre>
<IdProvincia>50</IdProvincia>
<ID>267</ID>
<latitud>43.23056</latitud>
<longitud>-2.845833</longitud>
</localidad>
<localidad>
<nombre>Gallur</nombre>
<IdProvincia>52</IdProvincia>
<ID>268</ID>
<latitud>41.86982</latitud>
<longitud>-1.31786</longitud>
</localidad>
<localidad>
<nombre>Gastor, El</nombre>
<IdProvincia>12</IdProvincia>
<ID>269</ID>
<latitud>36.85509</latitud>
<longitud>-5.323623</longitud>
</localidad>
<localidad>
<nombre>Gea de Albarracín</nombre>
<IdProvincia>46</IdProvincia>
<ID>270</ID>
<latitud>40.41083</latitud>
<longitud>-1.34803</longitud>
</localidad>
<localidad>
<nombre>Gernika-Lumo</nombre>
<IdProvincia>50</IdProvincia>
<ID>271</ID>
<latitud>43.31707</latitud>
<longitud>-2.678975</longitud>
</localidad>
<localidad>
<nombre>Getafe</nombre>
<IdProvincia>32</IdProvincia>
<ID>272</ID>
<latitud>40.30498</latitud>
<longitud>-3.732677</longitud>
</localidad>
<localidad>
<nombre>Gijón</nombre>
<IdProvincia>6</IdProvincia>
<ID>273</ID>
<latitud>43.54526</latitud>
<longitud>-5.661926</longitud>
</localidad>
<localidad>
<nombre>Ginebrosa, La</nombre>
<IdProvincia>46</IdProvincia>
<ID>274</ID>
<latitud>40.87043</latitud>
<longitud>-0.1334234</longitud>
</localidad>
<localidad>
<nombre>Girona</nombre>
<IdProvincia>19</IdProvincia>
<ID>275</ID>
<latitud>41.9818</latitud>
<longitud>2.8237</longitud>
</localidad>
<localidad>
<nombre>Gordaliza del Pino</nombre>
<IdProvincia>29</IdProvincia>
<ID>276</ID>
<latitud>42.34362</latitud>
<longitud>-5.157395</longitud>
</localidad>
<localidad>
<nombre>Gotor</nombre>
<IdProvincia>52</IdProvincia>
<ID>277</ID>
<latitud>41.54535</latitud>
<longitud>-1.650069</longitud>
</localidad>
<localidad>
<nombre>Gozón</nombre>
<IdProvincia>6</IdProvincia>
<ID>278</ID>
<latitud>43.60997</latitud>
<longitud>-5.789972</longitud>
</localidad>
<localidad>
<nombre>Grado</nombre>
<IdProvincia>6</IdProvincia>
<ID>279</ID>
<latitud>43.38855</latitud>
<longitud>-6.06973</longitud>
</localidad>
<localidad>
<nombre>Granada</nombre>
<IdProvincia>20</IdProvincia>
<ID>280</ID>
<latitud>37.17649</latitud>
<longitud>-3.597929</longitud>
</localidad>
<localidad>
<nombre>Granada de Río-Tinto, La</nombre>
<IdProvincia>23</IdProvincia>
<ID>281</ID>
<latitud>37.23156</latitud>
<longitud>-6.91823</longitud>
</localidad>
<localidad>
<nombre>Grandas de Salime</nombre>
<IdProvincia>6</IdProvincia>
<ID>282</ID>
<latitud>43.21853</latitud>
<longitud>-6.876276</longitud>
</localidad>
<localidad>
<nombre>Grañén</nombre>
<IdProvincia>24</IdProvincia>
<ID>283</ID>
<latitud>41.93995</latitud>
<longitud>-0.3692021</longitud>
</localidad>
<localidad>
<nombre>Graus</nombre>
<IdProvincia>24</IdProvincia>
<ID>284</ID>
<latitud>42.19274</latitud>
<longitud>0.3389097</longitud>
</localidad>
<localidad>
<nombre>Grazalema</nombre>
<IdProvincia>12</IdProvincia>
<ID>285</ID>
<latitud>36.75837</latitud>
<longitud>-5.366071</longitud>
</localidad>
<localidad>
<nombre>Guadalajara</nombre>
<IdProvincia>21</IdProvincia>
<ID>286</ID>
<latitud>40.62981</latitud>
<longitud>-3.166493</longitud>
</localidad>
<localidad>
<nombre>Gualchos</nombre>
<IdProvincia>20</IdProvincia>
<ID>287</ID>
<latitud>36.74357</latitud>
<longitud>-3.389869</longitud>
</localidad>
<localidad>
<nombre>Guillena</nombre>
<IdProvincia>43</IdProvincia>
<ID>288</ID>
<latitud>37.53902</latitud>
<longitud>-6.052268</longitud>
</localidad>
<localidad>
<nombre>Gurrea de Gállego</nombre>
<IdProvincia>24</IdProvincia>
<ID>289</ID>
<latitud>42.01335</latitud>
<longitud>-0.7621484</longitud>
</localidad>
<localidad>
<nombre>Herrera</nombre>
<IdProvincia>43</IdProvincia>
<ID>290</ID>
<latitud>37.36176</latitud>
<longitud>-4.850014</longitud>
</localidad>
<localidad>
<nombre>Herrera de Pisuerga</nombre>
<IdProvincia>38</IdProvincia>
<ID>291</ID>
<latitud>42.59454</latitud>
<longitud>-4.33076</longitud>
</localidad>
<localidad>
<nombre>Híjar</nombre>
<IdProvincia>46</IdProvincia>
<ID>292</ID>
<latitud>41.17572</latitud>
<longitud>-0.451008</longitud>
</localidad>
<localidad>
<nombre>Hinojos</nombre>
<IdProvincia>23</IdProvincia>
<ID>293</ID>
<latitud>37.29273</latitud>
<longitud>-6.376253</longitud>
</localidad>
<localidad>
<nombre>Huélamo</nombre>
<IdProvincia>18</IdProvincia>
<ID>294</ID>
<latitud>40.2775</latitud>
<longitud>-1.811318</longitud>
</localidad>
<localidad>
<nombre>Huelva</nombre>
<IdProvincia>23</IdProvincia>
<ID>295</ID>
<latitud>37.2571</latitud>
<longitud>-6.949555</longitud>
</localidad>
<localidad>
<nombre>Huerto</nombre>
<IdProvincia>24</IdProvincia>
<ID>296</ID>
<latitud>41.93188</latitud>
<longitud>-0.1666296</longitud>
</localidad>
<localidad>
<nombre>Huesca</nombre>
<IdProvincia>24</IdProvincia>
<ID>297</ID>
<latitud>42.1401</latitud>
<longitud>-0.408898</longitud>
</localidad>
<localidad>
<nombre>Ibias</nombre>
<IdProvincia>6</IdProvincia>
<ID>298</ID>
<latitud>43.03333</latitud>
<longitud>-6.866667</longitud>
</localidad>
<localidad>
<nombre>Illora</nombre>
<IdProvincia>20</IdProvincia>
<ID>299</ID>
<latitud>37.28843</latitud>
<longitud>-3.879782</longitud>
</localidad>
<localidad>
<nombre>Irun</nombre>
<IdProvincia>22</IdProvincia>
<ID>300</ID>
<latitud>43.33823</latitud>
<longitud>-1.789272</longitud>
</localidad>
<localidad>
<nombre>Izagre</nombre>
<IdProvincia>29</IdProvincia>
<ID>301</ID>
<latitud>42.22424</latitud>
<longitud>-5.257293</longitud>
</localidad>
<localidad>
<nombre>Jaca</nombre>
<IdProvincia>24</IdProvincia>
<ID>302</ID>
<latitud>42.57101</latitud>
<longitud>-0.5494531</longitud>
</localidad>
<localidad>
<nombre>Jaén</nombre>
<IdProvincia>26</IdProvincia>
<ID>303</ID>
<latitud>37.76574</latitud>
<longitud>-3.789518</longitud>
</localidad>
<localidad>
<nombre>Jarque</nombre>
<IdProvincia>52</IdProvincia>
<ID>304</ID>
<latitud>41.55592</latitud>
<longitud>-1.678478</longitud>
</localidad>
<localidad>
<nombre>Jerez de la Frontera</nombre>
<IdProvincia>12</IdProvincia>
<ID>305</ID>
<latitud>36.68656</latitud>
<longitud>-6.137173</longitud>
</localidad>
<localidad>
<nombre>Jimena de la Frontera</nombre>
<IdProvincia>12</IdProvincia>
<ID>306</ID>
<latitud>36.43404</latitud>
<longitud>-5.453479</longitud>
</localidad>
<localidad>
<nombre>Jimera de Líbar</nombre>
<IdProvincia>33</IdProvincia>
<ID>307</ID>
<latitud>36.65202</latitud>
<longitud>-5.273455</longitud>
</localidad>
<localidad>
<nombre>Kuartango</nombre>
<IdProvincia>2</IdProvincia>
<ID>308</ID>
<latitud>42.87139</latitud>
<longitud>-2.885556</longitud>
</localidad>
<localidad>
<nombre>Langa del Castillo</nombre>
<IdProvincia>52</IdProvincia>
<ID>309</ID>
<latitud>41.21275</latitud>
<longitud>-1.398226</longitud>
</localidad>
<localidad>
<nombre>Langreo</nombre>
<IdProvincia>6</IdProvincia>
<ID>310</ID>
<latitud>43.29636</latitud>
<longitud>-5.682541</longitud>
</localidad>
<localidad>
<nombre>Lanjarón</nombre>
<IdProvincia>20</IdProvincia>
<ID>311</ID>
<latitud>36.91806</latitud>
<longitud>-3.480488</longitud>
</localidad>
<localidad>
<nombre>Laviana</nombre>
<IdProvincia>6</IdProvincia>
<ID>312</ID>
<latitud>43.23576</latitud>
<longitud>-5.55625</longitud>
</localidad>
<localidad>
<nombre>Lécera</nombre>
<IdProvincia>52</IdProvincia>
<ID>313</ID>
<latitud>41.20604</latitud>
<longitud>-0.7099051</longitud>
</localidad>
<localidad>
<nombre>Leciñena</nombre>
<IdProvincia>52</IdProvincia>
<ID>314</ID>
<latitud>41.79892</latitud>
<longitud>-0.6105711</longitud>
</localidad>
<localidad>
<nombre>Lecrín</nombre>
<IdProvincia>20</IdProvincia>
<ID>315</ID>
<latitud>36.9477</latitud>
<longitud>-3.550382</longitud>
</localidad>
<localidad>
<nombre>Legutiano</nombre>
<IdProvincia>2</IdProvincia>
<ID>316</ID>
<latitud>42.97782</latitud>
<longitud>-2.642724</longitud>
</localidad>
<localidad>
<nombre>Lemoa</nombre>
<IdProvincia>50</IdProvincia>
<ID>317</ID>
<latitud>43.20876</latitud>
<longitud>-2.774117</longitud>
</localidad>
<localidad>
<nombre>Lena</nombre>
<IdProvincia>6</IdProvincia>
<ID>318</ID>
<latitud>43.15833</latitud>
<longitud>-5.829167</longitud>
</localidad>
<localidad>
<nombre>León</nombre>
<IdProvincia>29</IdProvincia>
<ID>319</ID>
<latitud>42.59988</latitud>
<longitud>-5.571752</longitud>
</localidad>
<localidad>
<nombre>Llanera</nombre>
<IdProvincia>6</IdProvincia>
<ID>320</ID>
<latitud>43.46667</latitud>
<longitud>-5.933333</longitud>
</localidad>
<localidad>
<nombre>Llanes</nombre>
<IdProvincia>6</IdProvincia>
<ID>321</ID>
<latitud>43.41953</latitud>
<longitud>-4.750914</longitud>
</localidad>
<localidad>
<nombre>Lleida</nombre>
<IdProvincia>30</IdProvincia>
<ID>322</ID>
<latitud>41.61415</latitud>
<longitud>0.6257825</longitud>
</localidad>
<localidad>
<nombre>Loarre</nombre>
<IdProvincia>24</IdProvincia>
<ID>323</ID>
<latitud>42.31464</latitud>
<longitud>-0.6249158</longitud>
</localidad>
<localidad>
<nombre>Logroño</nombre>
<IdProvincia>27</IdProvincia>
<ID>324</ID>
<latitud>42.46577</latitud>
<longitud>-2.449995</longitud>
</localidad>
<localidad>
<nombre>Loja</nombre>
<IdProvincia>20</IdProvincia>
<ID>325</ID>
<latitud>37.16884</latitud>
<longitud>-4.151471</longitud>
</localidad>
<localidad>
<nombre>Loporzano</nombre>
<IdProvincia>24</IdProvincia>
<ID>326</ID>
<latitud>42.16131</latitud>
<longitud>-0.324034</longitud>
</localidad>
<localidad>
<nombre>Lora de Estepa</nombre>
<IdProvincia>43</IdProvincia>
<ID>327</ID>
<latitud>37.26869</latitud>
<longitud>-4.827815</longitud>
</localidad>
<localidad>
<nombre>Lucena del Puerto</nombre>
<IdProvincia>23</IdProvincia>
<ID>328</ID>
<latitud>37.30394</latitud>
<longitud>-6.730086</longitud>
</localidad>
<localidad>
<nombre>Luisiana, La</nombre>
<IdProvincia>43</IdProvincia>
<ID>329</ID>
<latitud>37.52613</latitud>
<longitud>-5.248721</longitud>
</localidad>
<localidad>
<nombre>Lupiñén-Ortilla</nombre>
<IdProvincia>24</IdProvincia>
<ID>330</ID>
<latitud>42.17545</latitud>
<longitud>-0.5807649</longitud>
</localidad>
<localidad>
<nombre>Madrid</nombre>
<IdProvincia>32</IdProvincia>
<ID>331</ID>
<latitud>40.41669</latitud>
<longitud>-3.700346</longitud>
</localidad>
<localidad>
<nombre>Madroño, El</nombre>
<IdProvincia>43</IdProvincia>
<ID>332</ID>
<latitud>37.64548</latitud>
<longitud>-6.511699</longitud>
</localidad>
<localidad>
<nombre>Maella</nombre>
<IdProvincia>52</IdProvincia>
<ID>333</ID>
<latitud>41.12497</latitud>
<longitud>0.1398754</longitud>
</localidad>
<localidad>
<nombre>Magallón</nombre>
<IdProvincia>52</IdProvincia>
<ID>334</ID>
<latitud>41.83311</latitud>
<longitud>-1.461193</longitud>
</localidad>
<localidad>
<nombre>Málaga</nombre>
<IdProvincia>33</IdProvincia>
<ID>335</ID>
<latitud>36.71965</latitud>
<longitud>-4.420019</longitud>
</localidad>
<localidad>
<nombre>Mara</nombre>
<IdProvincia>52</IdProvincia>
<ID>336</ID>
<latitud>41.28913</latitud>
<longitud>-1.517676</longitud>
</localidad>
<localidad>
<nombre>María de Huerva</nombre>
<IdProvincia>52</IdProvincia>
<ID>337</ID>
<latitud>41.53905</latitud>
<longitud>-0.9935882</longitud>
</localidad>
<localidad>
<nombre>Marinaleda</nombre>
<IdProvincia>43</IdProvincia>
<ID>338</ID>
<latitud>37.37473</latitud>
<longitud>-4.953792</longitud>
</localidad>
<localidad>
<nombre>Martín de la Jara</nombre>
<IdProvincia>43</IdProvincia>
<ID>339</ID>
<latitud>37.10655</latitud>
<longitud>-4.962173</longitud>
</localidad>
<localidad>
<nombre>Matallana de Torío</nombre>
<IdProvincia>29</IdProvincia>
<ID>340</ID>
<latitud>42.84385</latitud>
<longitud>-5.498035</longitud>
</localidad>
<localidad>
<nombre>Mediana de Aragón</nombre>
<IdProvincia>52</IdProvincia>
<ID>341</ID>
<latitud>41.46745</latitud>
<longitud>-0.7053687</longitud>
</localidad>
<localidad>
<nombre>Mediona</nombre>
<IdProvincia>9</IdProvincia>
<ID>342</ID>
<latitud>41.48333</latitud>
<longitud>1.616667</longitud>
</localidad>
<localidad>
<nombre>Merindad de Montija</nombre>
<IdProvincia>10</IdProvincia>
<ID>343</ID>
<latitud>43.09207</latitud>
<longitud>-3.43402</longitud>
</localidad>
<localidad>
<nombre>Merindad de Valdivielso</nombre>
<IdProvincia>10</IdProvincia>
<ID>344</ID>
<latitud>42.82</latitud>
<longitud>-3.536</longitud>
</localidad>
<localidad>
<nombre>Mesones de Isuela</nombre>
<IdProvincia>52</IdProvincia>
<ID>345</ID>
<latitud>41.55116</latitud>
<longitud>-1.537185</longitud>
</localidad>
<localidad>
<nombre>Miajadas</nombre>
<IdProvincia>11</IdProvincia>
<ID>346</ID>
<latitud>39.15122</latitud>
<longitud>-5.907261</longitud>
</localidad>
<localidad>
<nombre>Mieres</nombre>
<IdProvincia>6</IdProvincia>
<ID>347</ID>
<latitud>43.25179</latitud>
<longitud>-5.776198</longitud>
</localidad>
<localidad>
<nombre>Mirandilla</nombre>
<IdProvincia>8</IdProvincia>
<ID>348</ID>
<latitud>39.0017</latitud>
<longitud>-6.289864</longitud>
</localidad>
<localidad>
<nombre>Molinos</nombre>
<IdProvincia>46</IdProvincia>
<ID>349</ID>
<latitud>40.81963</latitud>
<longitud>-0.450496</longitud>
</localidad>
<localidad>
<nombre>Mondariz</nombre>
<IdProvincia>39</IdProvincia>
<ID>350</ID>
<latitud>42.23425</latitud>
<longitud>-8.455334</longitud>
</localidad>
<localidad>
<nombre>Monreal</nombre>
<IdProvincia>36</IdProvincia>
<ID>351</ID>
<latitud>42.70464</latitud>
<longitud>-1.506409</longitud>
</localidad>
<localidad>
<nombre>Monreal de Ariza</nombre>
<IdProvincia>52</IdProvincia>
<ID>352</ID>
<latitud>41.29025</latitud>
<longitud>-2.110441</longitud>
</localidad>
<localidad>
<nombre>Monreal del Campo</nombre>
<IdProvincia>46</IdProvincia>
<ID>353</ID>
<latitud>40.7903</latitud>
<longitud>-1.354099</longitud>
</localidad>
<localidad>
<nombre>Monroyo</nombre>
<IdProvincia>46</IdProvincia>
<ID>354</ID>
<latitud>40.7874</latitud>
<longitud>-0.0317478</longitud>
</localidad>
<localidad>
<nombre>Montcada i Reixac</nombre>
<IdProvincia>9</IdProvincia>
<ID>355</ID>
<latitud>41.48231</latitud>
<longitud>2.188504</longitud>
</localidad>
<localidad>
<nombre>Montija</nombre>
<IdProvincia>24</IdProvincia>
<ID>356</ID>
<latitud>41.822712</latitud>
<longitud>-0.002749</longitud>
</localidad>
<localidad>
<nombre>Monturque</nombre>
<IdProvincia>17</IdProvincia>
<ID>357</ID>
<latitud>37.47332</latitud>
<longitud>-4.581713</longitud>
</localidad>
<localidad>
<nombre>Monzón</nombre>
<IdProvincia>24</IdProvincia>
<ID>358</ID>
<latitud>41.91031</latitud>
<longitud>0.1946406</longitud>
</localidad>
<localidad>
<nombre>Morata de Jalón</nombre>
<IdProvincia>52</IdProvincia>
<ID>359</ID>
<latitud>41.47309</latitud>
<longitud>-1.473444</longitud>
</localidad>
<localidad>
<nombre>Morcín</nombre>
<IdProvincia>6</IdProvincia>
<ID>360</ID>
<latitud>43.28333</latitud>
<longitud>-5.883333</longitud>
</localidad>
<localidad>
<nombre>Morón de la Frontera</nombre>
<IdProvincia>43</IdProvincia>
<ID>361</ID>
<latitud>37.1223</latitud>
<longitud>-5.451869</longitud>
</localidad>
<localidad>
<nombre>Moyuela</nombre>
<IdProvincia>52</IdProvincia>
<ID>362</ID>
<latitud>41.1285</latitud>
<longitud>-0.9221865</longitud>
</localidad>
<localidad>
<nombre>Muela, La</nombre>
<IdProvincia>52</IdProvincia>
<ID>363</ID>
<latitud>41.58038</latitud>
<longitud>-1.119097</longitud>
</localidad>
<localidad>
<nombre>Muniesa</nombre>
<IdProvincia>46</IdProvincia>
<ID>364</ID>
<latitud>41.03386</latitud>
<longitud>-0.8120759</longitud>
</localidad>
<localidad>
<nombre>Murillo de Gállego</nombre>
<IdProvincia>52</IdProvincia>
<ID>365</ID>
<latitud>42.33651</latitud>
<longitud>-0.7540914</longitud>
</localidad>
<localidad>
<nombre>Mutriku</nombre>
<IdProvincia>22</IdProvincia>
<ID>366</ID>
<latitud>43.30707</latitud>
<longitud>-2.385083</longitud>
</localidad>
<localidad>
<nombre>Muxika</nombre>
<IdProvincia>50</IdProvincia>
<ID>367</ID>
<latitud>43.28967</latitud>
<longitud>-2.692941</longitud>
</localidad>
<localidad>
<nombre>Navalcán</nombre>
<IdProvincia>47</IdProvincia>
<ID>368</ID>
<latitud>40.06983</latitud>
<longitud>-5.092264</longitud>
</localidad>
<localidad>
<nombre>Navia</nombre>
<IdProvincia>6</IdProvincia>
<ID>369</ID>
<latitud>43.5401</latitud>
<longitud>-6.723192</longitud>
</localidad>
<localidad>
<nombre>Noreña</nombre>
<IdProvincia>6</IdProvincia>
<ID>370</ID>
<latitud>43.39547</latitud>
<longitud>-5.706471</longitud>
</localidad>
<localidad>
<nombre>Novallas</nombre>
<IdProvincia>52</IdProvincia>
<ID>371</ID>
<latitud>41.94646</latitud>
<longitud>-1.693985</longitud>
</localidad>
<localidad>
<nombre>Novillas</nombre>
<IdProvincia>52</IdProvincia>
<ID>372</ID>
<latitud>41.93424</latitud>
<longitud>-1.392918</longitud>
</localidad>
<localidad>
<nombre>Oiartzun</nombre>
<IdProvincia>22</IdProvincia>
<ID>373</ID>
<latitud>43.29928</latitud>
<longitud>-1.857874</longitud>
</localidad>
<localidad>
<nombre>Ojos Negros</nombre>
<IdProvincia>46</IdProvincia>
<ID>374</ID>
<latitud>40.73796</latitud>
<longitud>-1.500031</longitud>
</localidad>
<localidad>
<nombre>Olmos, Los</nombre>
<IdProvincia>46</IdProvincia>
<ID>375</ID>
<latitud>40.87758</latitud>
<longitud>-0.4884439</longitud>
</localidad>
<localidad>
<nombre>Olvera</nombre>
<IdProvincia>12</IdProvincia>
<ID>376</ID>
<latitud>36.93525</latitud>
<longitud>-5.267688</longitud>
</localidad>
<localidad>
<nombre>Orduña</nombre>
<IdProvincia>50</IdProvincia>
<ID>377</ID>
<latitud>42.99445</latitud>
<longitud>-3.009623</longitud>
</localidad>
<localidad>
<nombre>Órgiva</nombre>
<IdProvincia>20</IdProvincia>
<ID>378</ID>
<latitud>36.90224</latitud>
<longitud>-3.42399</longitud>
</localidad>
<localidad>
<nombre>Oropesa</nombre>
<IdProvincia>47</IdProvincia>
<ID>379</ID>
<latitud>39.91914</latitud>
<longitud>-5.173415</longitud>
</localidad>
<localidad>
<nombre>Osuna</nombre>
<IdProvincia>43</IdProvincia>
<ID>380</ID>
<latitud>37.23697</latitud>
<longitud>-5.102748</longitud>
</localidad>
<localidad>
<nombre>Otxandio</nombre>
<IdProvincia>50</IdProvincia>
<ID>381</ID>
<latitud>43.04045</latitud>
<longitud>-2.654584</longitud>
</localidad>
<localidad>
<nombre>Oviedo</nombre>
<IdProvincia>6</IdProvincia>
<ID>382</ID>
<latitud>43.36026</latitud>
<longitud>-5.844759</longitud>
</localidad>
<localidad>
<nombre>Padul</nombre>
<IdProvincia>20</IdProvincia>
<ID>383</ID>
<latitud>37.02432</latitud>
<longitud>-3.626719</longitud>
</localidad>
<localidad>
<nombre>Palencia</nombre>
<IdProvincia>38</IdProvincia>
<ID>384</ID>
<latitud>42.01246</latitud>
<longitud>-4.531175</longitud>
</localidad>
<localidad>
<nombre>Palomares del Río</nombre>
<IdProvincia>43</IdProvincia>
<ID>385</ID>
<latitud>37.32256</latitud>
<longitud>-6.057716</longitud>
</localidad>
<localidad>
<nombre>Pardines</nombre>
<IdProvincia>19</IdProvincia>
<ID>386</ID>
<latitud>42.31271</latitud>
<longitud>2.213113</longitud>
</localidad>
<localidad>
<nombre>Parres</nombre>
<IdProvincia>6</IdProvincia>
<ID>387</ID>
<latitud>43.37</latitud>
<longitud>-5.19</longitud>
</localidad>
<localidad>
<nombre>Paterna</nombre>
<IdProvincia>48</IdProvincia>
<ID>388</ID>
<latitud>39.50206</latitud>
<longitud>-0.4405986</longitud>
</localidad>
<localidad>
<nombre>Pedrola</nombre>
<IdProvincia>52</IdProvincia>
<ID>389</ID>
<latitud>41.79163</latitud>
<longitud>-1.214005</longitud>
</localidad>
<localidad>
<nombre>Peñalba</nombre>
<IdProvincia>24</IdProvincia>
<ID>390</ID>
<latitud>41.50001</latitud>
<longitud>-0.0384445</longitud>
</localidad>
<localidad>
<nombre>Peñas de Riglos, Las</nombre>
<IdProvincia>24</IdProvincia>
<ID>391</ID>
<latitud>42.34886</latitud>
<longitud>-0.7268404</longitud>
</localidad>
<localidad>
<nombre>Pepino</nombre>
<IdProvincia>47</IdProvincia>
<ID>392</ID>
<latitud>40.03209</latitud>
<longitud>-4.802787</longitud>
</localidad>
<localidad>
<nombre>Peralta</nombre>
<IdProvincia>36</IdProvincia>
<ID>393</ID>
<latitud>42.33884</latitud>
<longitud>-1.797463</longitud>
</localidad>
<localidad>
<nombre>Peralta de Calasanz</nombre>
<IdProvincia>24</IdProvincia>
<ID>394</ID>
<latitud>42.01811</latitud>
<longitud>0.3936722</longitud>
</localidad>
<localidad>
<nombre>Perdiguera</nombre>
<IdProvincia>52</IdProvincia>
<ID>395</ID>
<latitud>41.75367</latitud>
<longitud>-0.6316877</longitud>
</localidad>
<localidad>
<nombre>Piloña</nombre>
<IdProvincia>6</IdProvincia>
<ID>396</ID>
<latitud>43.351</latitud>
<longitud>-5.363</longitud>
</localidad>
<localidad>
<nombre>Pina de Ebro</nombre>
<IdProvincia>52</IdProvincia>
<ID>397</ID>
<latitud>41.48727</latitud>
<longitud>-0.5319692</longitud>
</localidad>
<localidad>
<nombre>Pinar, El</nombre>
<IdProvincia>20</IdProvincia>
<ID>398</ID>
<latitud>37.44337</latitud>
<longitud>-3.439418</longitud>
</localidad>
<localidad>
<nombre>Pinilla del Valle</nombre>
<IdProvincia>32</IdProvincia>
<ID>399</ID>
<latitud>40.9262</latitud>
<longitud>-3.819392</longitud>
</localidad>
<localidad>
<nombre>Pintanos, Los</nombre>
<IdProvincia>52</IdProvincia>
<ID>400</ID>
<latitud>42.52914</latitud>
<longitud>-1.022003</longitud>
</localidad>
<localidad>
<nombre>Pinto</nombre>
<IdProvincia>32</IdProvincia>
<ID>401</ID>
<latitud>40.24454</latitud>
<longitud>-3.696013</longitud>
</localidad>
<localidad>
<nombre>Polopos</nombre>
<IdProvincia>20</IdProvincia>
<ID>402</ID>
<latitud>36.79553</latitud>
<longitud>-3.297135</longitud>
</localidad>
<localidad>
<nombre>Ponferrada</nombre>
<IdProvincia>29</IdProvincia>
<ID>403</ID>
<latitud>42.54633</latitud>
<longitud>-6.590833</longitud>
</localidad>
<localidad>
<nombre>Ponga</nombre>
<IdProvincia>6</IdProvincia>
<ID>404</ID>
<latitud>43.19</latitud>
<longitud>-5.16</longitud>
</localidad>
<localidad>
<nombre>Prado del Rey</nombre>
<IdProvincia>12</IdProvincia>
<ID>405</ID>
<latitud>36.78968</latitud>
<longitud>-5.555545</longitud>
</localidad>
<localidad>
<nombre>Pravia</nombre>
<IdProvincia>6</IdProvincia>
<ID>406</ID>
<latitud>43.49004</latitud>
<longitud>-6.112017</longitud>
</localidad>
<localidad>
<nombre>Priaranza del Bierzo</nombre>
<IdProvincia>29</IdProvincia>
<ID>407</ID>
<latitud>42.51058</latitud>
<longitud>-6.668278</longitud>
</localidad>
<localidad>
<nombre>Proaza</nombre>
<IdProvincia>6</IdProvincia>
<ID>408</ID>
<latitud>43.25117</latitud>
<longitud>-6.015672</longitud>
</localidad>
<localidad>
<nombre>Pruna</nombre>
<IdProvincia>43</IdProvincia>
<ID>409</ID>
<latitud>36.97364</latitud>
<longitud>-5.222943</longitud>
</localidad>
<localidad>
<nombre>Puebla de Albortón</nombre>
<IdProvincia>52</IdProvincia>
<ID>410</ID>
<latitud>41.38388</latitud>
<longitud>-0.8539658</longitud>
</localidad>
<localidad>
<nombre>Puebla de Cazalla, La</nombre>
<IdProvincia>43</IdProvincia>
<ID>411</ID>
<latitud>37.22441</latitud>
<longitud>-5.31227</longitud>
</localidad>
<localidad>
<nombre>Puebla de Híjar, La</nombre>
<IdProvincia>46</IdProvincia>
<ID>412</ID>
<latitud>41.2209</latitud>
<longitud>-0.443926</longitud>
</localidad>
<localidad>
<nombre>Puebla de los Infantes, La</nombre>
<IdProvincia>43</IdProvincia>
<ID>413</ID>
<latitud>37.77852</latitud>
<longitud>-5.388995</longitud>
</localidad>
<localidad>
<nombre>Puebla de Valverde, La</nombre>
<IdProvincia>46</IdProvincia>
<ID>414</ID>
<latitud>40.2247</latitud>
<longitud>-0.9297862</longitud>
</localidad>
<localidad>
<nombre>Pueyo de Araguás, El</nombre>
<IdProvincia>24</IdProvincia>
<ID>415</ID>
<latitud>42.44161</latitud>
<longitud>0.1618542</longitud>
</localidad>
<localidad>
<nombre>Quintana de la Serena</nombre>
<IdProvincia>8</IdProvincia>
<ID>416</ID>
<latitud>38.74163</latitud>
<longitud>-5.672316</longitud>
</localidad>
<localidad>
<nombre>Quintanilla de la Mata</nombre>
<IdProvincia>10</IdProvincia>
<ID>417</ID>
<latitud>41.98862</latitud>
<longitud>-3.76779</longitud>
</localidad>
<localidad>
<nombre>Quirós</nombre>
<IdProvincia>6</IdProvincia>
<ID>418</ID>
<latitud>43.15</latitud>
<longitud>-5.966667</longitud>
</localidad>
<localidad>
<nombre>Rascafría</nombre>
<IdProvincia>32</IdProvincia>
<ID>419</ID>
<latitud>40.90381</latitud>
<longitud>-3.879398</longitud>
</localidad>
<localidad>
<nombre>Real de la Jara, El</nombre>
<IdProvincia>43</IdProvincia>
<ID>420</ID>
<latitud>37.95061</latitud>
<longitud>-6.1559</longitud>
</localidad>
<localidad>
<nombre>Regueras, Las</nombre>
<IdProvincia>6</IdProvincia>
<ID>421</ID>
<latitud>43.41374</latitud>
<longitud>-5.970489</longitud>
</localidad>
<localidad>
<nombre>Reíllo</nombre>
<IdProvincia>18</IdProvincia>
<ID>422</ID>
<latitud>39.90438</latitud>
<longitud>-1.873556</longitud>
</localidad>
<localidad>
<nombre>Reus</nombre>
<IdProvincia>45</IdProvincia>
<ID>423</ID>
<latitud>41.15482</latitud>
<longitud>1.108676</longitud>
</localidad>
<localidad>
<nombre>Rialp</nombre>
<IdProvincia>30</IdProvincia>
<ID>424</ID>
<latitud>42.44348</latitud>
<longitud>1.135177</longitud>
</localidad>
<localidad>
<nombre>Riaza</nombre>
<IdProvincia>42</IdProvincia>
<ID>425</ID>
<latitud>41.28003</latitud>
<longitud>-3.477578</longitud>
</localidad>
<localidad>
<nombre>Ricla</nombre>
<IdProvincia>52</IdProvincia>
<ID>426</ID>
<latitud>41.50775</latitud>
<longitud>-1.402532</longitud>
</localidad>
<localidad>
<nombre>Rillo</nombre>
<IdProvincia>46</IdProvincia>
<ID>427</ID>
<latitud>40.72252</latitud>
<longitud>-0.9954608</longitud>
</localidad>
<localidad>
<nombre>Rinconada, La</nombre>
<IdProvincia>43</IdProvincia>
<ID>428</ID>
<latitud>37.4878</latitud>
<longitud>-5.979309</longitud>
</localidad>
<localidad>
<nombre>Roda de Andalucía, La</nombre>
<IdProvincia>43</IdProvincia>
<ID>429</ID>
<latitud>37.20099</latitud>
<longitud>-4.779276</longitud>
</localidad>
<localidad>
<nombre>Roda, La</nombre>
<IdProvincia>3</IdProvincia>
<ID>430</ID>
<latitud>39.0013</latitud>
<longitud>-1.868604</longitud>
</localidad>
<localidad>
<nombre>Ronda</nombre>
<IdProvincia>33</IdProvincia>
<ID>431</ID>
<latitud>36.74196</latitud>
<longitud>-5.166412</longitud>
</localidad>
<localidad>
<nombre>Rosal de la Frontera</nombre>
<IdProvincia>23</IdProvincia>
<ID>432</ID>
<latitud>37.9678</latitud>
<longitud>-7.220527</longitud>
</localidad>
<localidad>
<nombre>Rubiales</nombre>
<IdProvincia>46</IdProvincia>
<ID>433</ID>
<latitud>40.27658</latitud>
<longitud>-1.269214</longitud>
</localidad>
<localidad>
<nombre>Rubio, El</nombre>
<IdProvincia>43</IdProvincia>
<ID>434</ID>
<latitud>37.3557</latitud>
<longitud>-4.988925</longitud>
</localidad>
<localidad>
<nombre>Rueda de Jalón</nombre>
<IdProvincia>52</IdProvincia>
<ID>435</ID>
<latitud>41.6342</latitud>
<longitud>-1.27299</longitud>
</localidad>
<localidad>
<nombre>Sabiñánigo</nombre>
<IdProvincia>24</IdProvincia>
<ID>436</ID>
<latitud>42.5197</latitud>
<longitud>-0.3650786</longitud>
</localidad>
<localidad>
<nombre>Salamanca</nombre>
<IdProvincia>40</IdProvincia>
<ID>437</ID>
<latitud>40.96497</latitud>
<longitud>-5.663047</longitud>
</localidad>
<localidad>
<nombre>Aranga</nombre>
<IdProvincia>1</IdProvincia>
<ID>438</ID>
<latitud>43.23333</latitud>
<longitud>-8.016667</longitud>
</localidad>
<localidad>
<nombre>Capela, A</nombre>
<IdProvincia>1</IdProvincia>
<ID>439</ID>
<latitud>42.69293</latitud>
<longitud>-8.792709</longitud>
</localidad>
<localidad>
<nombre>Ortoño</nombre>
<IdProvincia>1</IdProvincia>
<ID>440</ID>
<latitud>42.8469375</latitud>
<longitud>-8.6436974</longitud>
</localidad>
<localidad>
<nombre>Pino, O</nombre>
<IdProvincia>1</IdProvincia>
<ID>441</ID>
<latitud>42.98462</latitud>
<longitud>-8.313807</longitud>
</localidad>
<localidad>
<nombre>Pontes de García Rodríguez, As</nombre>
<IdProvincia>1</IdProvincia>
<ID>442</ID>
<latitud>43.44582</latitud>
<longitud>-7.849446</longitud>
</localidad>
<localidad>
<nombre>Valdoviño</nombre>
<IdProvincia>1</IdProvincia>
<ID>443</ID>
<latitud>43.6</latitud>
<longitud>-8.133056</longitud>
</localidad>
<localidad>
<nombre>Vilarmaior</nombre>
<IdProvincia>1</IdProvincia>
<ID>444</ID>
<latitud>43.34461</latitud>
<longitud>-8.15395</longitud>
</localidad>
<localidad>
<nombre>Arrazua-Ubarrundia</nombre>
<IdProvincia>2</IdProvincia>
<ID>445</ID>
<latitud>42.89028</latitud>
<longitud>-2.639167</longitud>
</localidad>
<localidad>
<nombre>Laguardia</nombre>
<IdProvincia>2</IdProvincia>
<ID>446</ID>
<latitud>42.55428</latitud>
<longitud>-2.584237</longitud>
</localidad>
<localidad>
<nombre>Ribera Alta</nombre>
<IdProvincia>2</IdProvincia>
<ID>447</ID>
<latitud>42.71577</latitud>
<longitud>-2.968477</longitud>
</localidad>
<localidad>
<nombre>Urkabustaiz</nombre>
<IdProvincia>2</IdProvincia>
<ID>448</ID>
<latitud>42.97194</latitud>
<longitud>-2.922222</longitud>
</localidad>
<localidad>
<nombre>Valdegovía</nombre>
<IdProvincia>2</IdProvincia>
<ID>449</ID>
<latitud>42.85</latitud>
<longitud>-3.1</longitud>
</localidad>
<localidad>
<nombre>Alcaraz</nombre>
<IdProvincia>3</IdProvincia>
<ID>450</ID>
<latitud>38.66966</latitud>
<longitud>-2.492647</longitud>
</localidad>
<localidad>
<nombre>Bonete</nombre>
<IdProvincia>3</IdProvincia>
<ID>451</ID>
<latitud>38.8693</latitud>
<longitud>-1.348517</longitud>
</localidad>
<localidad>
<nombre>Casas-Ibáñez</nombre>
<IdProvincia>3</IdProvincia>
<ID>452</ID>
<latitud>39.28518</latitud>
<longitud>-1.47113</longitud>
</localidad>
<localidad>
<nombre>Hellín</nombre>
<IdProvincia>3</IdProvincia>
<ID>453</ID>
<latitud>38.51216</latitud>
<longitud>-1.70331</longitud>
</localidad>
<localidad>
<nombre>Letur</nombre>
<IdProvincia>3</IdProvincia>
<ID>454</ID>
<latitud>38.36555</latitud>
<longitud>-2.101964</longitud>
</localidad>
<localidad>
<nombre>Tobarra</nombre>
<IdProvincia>3</IdProvincia>
<ID>455</ID>
<latitud>38.58844</latitud>
<longitud>-1.693783</longitud>
</localidad>
<localidad>
<nombre>Yeste</nombre>
<IdProvincia>3</IdProvincia>
<ID>456</ID>
<latitud>38.36583</latitud>
<longitud>-2.318711</longitud>
</localidad>
<localidad>
<nombre>Alcoy/Alcoi</nombre>
<IdProvincia>4</IdProvincia>
<ID>457</ID>
<latitud>38.69763</latitud>
<longitud>-0.4730959</longitud>
</localidad>
<localidad>
<nombre>Alicante/Alacant</nombre>
<IdProvincia>4</IdProvincia>
<ID>458</ID>
<latitud>38.3452</latitud>
<longitud>-0.481006</longitud>
</localidad>
<localidad>
<nombre>Benejúzar</nombre>
<IdProvincia>4</IdProvincia>
<ID>459</ID>
<latitud>38.07839</latitud>
<longitud>-0.8384452</longitud>
</localidad>
<localidad>
<nombre>Bigastro</nombre>
<IdProvincia>4</IdProvincia>
<ID>460</ID>
<latitud>38.06304</latitud>
<longitud>-0.8955043</longitud>
</localidad>
<localidad>
<nombre>Guardamar del Segura</nombre>
<IdProvincia>4</IdProvincia>
<ID>461</ID>
<latitud>38.08615</latitud>
<longitud>-0.651254</longitud>
</localidad>
<localidad>
<nombre>Hondón de las Nieves</nombre>
<IdProvincia>4</IdProvincia>
<ID>462</ID>
<latitud>38.30504</latitud>
<longitud>-0.9341582</longitud>
</localidad>
<localidad>
<nombre>Ibi</nombre>
<IdProvincia>4</IdProvincia>
<ID>463</ID>
<latitud>38.62551</latitud>
<longitud>-0.5713521</longitud>
</localidad>
<localidad>
<nombre>Jávea/Xàbia</nombre>
<IdProvincia>4</IdProvincia>
<ID>464</ID>
<latitud>38.79546</latitud>
<longitud>0.1166293</longitud>
</localidad>
<localidad>
<nombre>Jijona/Xixona</nombre>
<IdProvincia>4</IdProvincia>
<ID>465</ID>
<latitud>38.54006</latitud>
<longitud>-0.5077739</longitud>
</localidad>
<localidad>
<nombre>Orihuela</nombre>
<IdProvincia>4</IdProvincia>
<ID>466</ID>
<latitud>38.08395</latitud>
<longitud>-0.9447829</longitud>
</localidad>
<localidad>
<nombre>Berja</nombre>
<IdProvincia>5</IdProvincia>
<ID>467</ID>
<latitud>36.84644</latitud>
<longitud>-2.949425</longitud>
</localidad>
<localidad>
<nombre>Illar</nombre>
<IdProvincia>5</IdProvincia>
<ID>468</ID>
<latitud>36.98504</latitud>
<longitud>-2.639302</longitud>
</localidad>
<localidad>
<nombre>Sierro</nombre>
<IdProvincia>5</IdProvincia>
<ID>469</ID>
<latitud>37.32348</latitud>
<longitud>-2.398526</longitud>
</localidad>
<localidad>
<nombre>Aller</nombre>
<IdProvincia>6</IdProvincia>
<ID>470</ID>
<latitud>43.1497</latitud>
<longitud>-5.687873</longitud>
</localidad>
<localidad>
<nombre>Amieva</nombre>
<IdProvincia>6</IdProvincia>
<ID>471</ID>
<latitud>43.24429</latitud>
<longitud>-5.074191</longitud>
</localidad>
<localidad>
<nombre>Areces</nombre>
<IdProvincia>6</IdProvincia>
<ID>472</ID>
<latitud>43.4072962</latitud>
<longitud>-6.004972</longitud>
</localidad>
<localidad>
<nombre>Carreño</nombre>
<IdProvincia>6</IdProvincia>
<ID>473</ID>
<latitud>43.54855</latitud>
<longitud>-5.789795</longitud>
</localidad>
<localidad>
<nombre>Colunga</nombre>
<IdProvincia>6</IdProvincia>
<ID>474</ID>
<latitud>43.48529</latitud>
<longitud>-5.270611</longitud>
</localidad>
<localidad>
<nombre>Corvera de Asturias</nombre>
<IdProvincia>6</IdProvincia>
<ID>475</ID>
<latitud>43.51012</latitud>
<longitud>-5.869227</longitud>
</localidad>
<localidad>
<nombre>Degaña</nombre>
<IdProvincia>6</IdProvincia>
<ID>476</ID>
<latitud>42.94008</latitud>
<longitud>-6.570541</longitud>
</localidad>
<localidad>
<nombre>Franco, El</nombre>
<IdProvincia>6</IdProvincia>
<ID>477</ID>
<latitud>43.55703</latitud>
<longitud>-6.87387</longitud>
</localidad>
<localidad>
<nombre>Nava</nombre>
<IdProvincia>6</IdProvincia>
<ID>478</ID>
<latitud>43.35816</latitud>
<longitud>-5.505977</longitud>
</localidad>
<localidad>
<nombre>Peñamellera Alta</nombre>
<IdProvincia>6</IdProvincia>
<ID>479</ID>
<latitud>43.32</latitud>
<longitud>-4.71</longitud>
</localidad>
<localidad>
<nombre>Peñamellera Baja</nombre>
<IdProvincia>6</IdProvincia>
<ID>480</ID>
<latitud>43.31</latitud>
<longitud>-4.59</longitud>
</localidad>
<localidad>
<nombre>Ribadedeva</nombre>
<IdProvincia>6</IdProvincia>
<ID>481</ID>
<latitud>43.37</latitud>
<longitud>-4.57</longitud>
</localidad>
<localidad>
<nombre>Ribera de Arriba</nombre>
<IdProvincia>6</IdProvincia>
<ID>482</ID>
<latitud>43.30809</latitud>
<longitud>-5.893434</longitud>
</localidad>
<localidad>
<nombre>Tapia de Casariego</nombre>
<IdProvincia>6</IdProvincia>
<ID>483</ID>
<latitud>43.56975</latitud>
<longitud>-6.943604</longitud>
</localidad>
<localidad>
<nombre>Adanero</nombre>
<IdProvincia>7</IdProvincia>
<ID>484</ID>
<latitud>40.94591</latitud>
<longitud>-4.606659</longitud>
</localidad>
<localidad>
<nombre>Arenal, El</nombre>
<IdProvincia>7</IdProvincia>
<ID>485</ID>
<latitud>40.26487</latitud>
<longitud>-5.087197</longitud>
</localidad>
<localidad>
<nombre>Arenas de San Pedro</nombre>
<IdProvincia>7</IdProvincia>
<ID>486</ID>
<latitud>40.20872</latitud>
<longitud>-5.091141</longitud>
</localidad>
<localidad>
<nombre>Ávila</nombre>
<IdProvincia>7</IdProvincia>
<ID>487</ID>
<latitud>40.65642</latitud>
<longitud>-4.700323</longitud>
</localidad>
<localidad>
<nombre>Bohodón, El</nombre>
<IdProvincia>7</IdProvincia>
<ID>488</ID>
<latitud>40.91633</latitud>
<longitud>-4.730068</longitud>
</localidad>
<localidad>
<nombre>Burgohondo</nombre>
<IdProvincia>7</IdProvincia>
<ID>489</ID>
<latitud>40.41368</latitud>
<longitud>-4.786215</longitud>
</localidad>
<localidad>
<nombre>Casavieja</nombre>
<IdProvincia>7</IdProvincia>
<ID>490</ID>
<latitud>40.28105</latitud>
<longitud>-4.766778</longitud>
</localidad>
<localidad>
<nombre>Cebreros</nombre>
<IdProvincia>7</IdProvincia>
<ID>491</ID>
<latitud>40.45507</latitud>
<longitud>-4.464714</longitud>
</localidad>
<localidad>
<nombre>Cepeda la Mora</nombre>
<IdProvincia>7</IdProvincia>
<ID>492</ID>
<latitud>40.45761</latitud>
<longitud>-5.048178</longitud>
</localidad>
<localidad>
<nombre>Crespos</nombre>
<IdProvincia>7</IdProvincia>
<ID>493</ID>
<latitud>40.87341</latitud>
<longitud>-4.969728</longitud>
</localidad>
<localidad>
<nombre>Flores de Ávila</nombre>
<IdProvincia>7</IdProvincia>
<ID>494</ID>
<latitud>40.93462</latitud>
<longitud>-5.078152</longitud>
</localidad>
<localidad>
<nombre>Fuente el Saúz</nombre>
<IdProvincia>7</IdProvincia>
<ID>495</ID>
<latitud>40.97907</latitud>
<longitud>-4.910458</longitud>
</localidad>
<localidad>
<nombre>Gavilanes</nombre>
<IdProvincia>7</IdProvincia>
<ID>496</ID>
<latitud>40.27752</latitud>
<longitud>-4.851113</longitud>
</localidad>
<localidad>
<nombre>Higuera de las Dueñas</nombre>
<IdProvincia>7</IdProvincia>
<ID>497</ID>
<latitud>40.23775</latitud>
<longitud>-4.601235</longitud>
</localidad>
<localidad>
<nombre>Hornillo, El</nombre>
<IdProvincia>7</IdProvincia>
<ID>498</ID>
<latitud>40.24966</latitud>
<longitud>-5.104175</longitud>
</localidad>
<localidad>
<nombre>Hoyos del Collado</nombre>
<IdProvincia>7</IdProvincia>
<ID>499</ID>
<latitud>40.35938</latitud>
<longitud>-5.201206</longitud>
</localidad>
<localidad>
<nombre>Hoyos del Espino</nombre>
<IdProvincia>7</IdProvincia>
<ID>500</ID>
<latitud>40.35726</latitud>
<longitud>-5.173525</longitud>
</localidad>
<localidad>
<nombre>Navarrevisca</nombre>
<IdProvincia>7</IdProvincia>
<ID>501</ID>
<latitud>40.36426</latitud>
<longitud>-4.89544</longitud>
</localidad>
<localidad>
<nombre>Pedro Bernardo</nombre>
<IdProvincia>7</IdProvincia>
<ID>502</ID>
<latitud>40.24287</latitud>
<longitud>-4.914765</longitud>
</localidad>
<localidad>
<nombre>Piedralaves</nombre>
<IdProvincia>7</IdProvincia>
<ID>503</ID>
<latitud>40.31736</latitud>
<longitud>-4.69809</longitud>
</localidad>
<localidad>
<nombre>Santa Cruz del Valle</nombre>
<IdProvincia>7</IdProvincia>
<ID>504</ID>
<latitud>40.25078</latitud>
<longitud>-5.003672</longitud>
</localidad>
<localidad>
<nombre>Tiemblo, El</nombre>
<IdProvincia>7</IdProvincia>
<ID>505</ID>
<latitud>40.41628</latitud>
<longitud>-4.503831</longitud>
</localidad>
<localidad>
<nombre>Alburquerque</nombre>
<IdProvincia>8</IdProvincia>
<ID>506</ID>
<latitud>39.21936</latitud>
<longitud>-7.001317</longitud>
</localidad>
<localidad>
<nombre>Alconchel</nombre>
<IdProvincia>8</IdProvincia>
<ID>507</ID>
<latitud>38.51668</latitud>
<longitud>-7.070871</longitud>
</localidad>
<localidad>
<nombre>Almendral</nombre>
<IdProvincia>8</IdProvincia>
<ID>508</ID>
<latitud>38.61327</latitud>
<longitud>-6.822295</longitud>
</localidad>
<localidad>
<nombre>Arroyo de San Serván</nombre>
<IdProvincia>8</IdProvincia>
<ID>509</ID>
<latitud>38.85286</latitud>
<longitud>-6.455208</longitud>
</localidad>
<localidad>
<nombre>Azuaga</nombre>
<IdProvincia>8</IdProvincia>
<ID>510</ID>
<latitud>38.25962</latitud>
<longitud>-5.677916</longitud>
</localidad>
<localidad>
<nombre>Cabeza la Vaca</nombre>
<IdProvincia>8</IdProvincia>
<ID>511</ID>
<latitud>38.08687</latitud>
<longitud>-6.422567</longitud>
</localidad>
<localidad>
<nombre>Casas de Don Pedro</nombre>
<IdProvincia>8</IdProvincia>
<ID>512</ID>
<latitud>39.10563</latitud>
<longitud>-5.328635</longitud>
</localidad>
<localidad>
<nombre>Castuera</nombre>
<IdProvincia>8</IdProvincia>
<ID>513</ID>
<latitud>38.72257</latitud>
<longitud>-5.545517</longitud>
</localidad>
<localidad>
<nombre>Fregenal de la Sierra</nombre>
<IdProvincia>8</IdProvincia>
<ID>514</ID>
<latitud>38.16476</latitud>
<longitud>-6.651353</longitud>
</localidad>
<localidad>
<nombre>Herrera del Duque</nombre>
<IdProvincia>8</IdProvincia>
<ID>515</ID>
<latitud>39.16891</latitud>
<longitud>-5.051313</longitud>
</localidad>
<localidad>
<nombre>Llerena</nombre>
<IdProvincia>8</IdProvincia>
<ID>516</ID>
<latitud>38.23769</latitud>
<longitud>-6.015329</longitud>
</localidad>
<localidad>
<nombre>Medina de las Torres</nombre>
<IdProvincia>8</IdProvincia>
<ID>517</ID>
<latitud>38.34339</latitud>
<longitud>-6.411753</longitud>
</localidad>
<localidad>
<nombre>Mérida</nombre>
<IdProvincia>8</IdProvincia>
<ID>518</ID>
<latitud>38.91586</latitud>
<longitud>-6.345606</longitud>
</localidad>
<localidad>
<nombre>Monesterio</nombre>
<IdProvincia>8</IdProvincia>
<ID>519</ID>
<latitud>38.08678</latitud>
<longitud>-6.274293</longitud>
</localidad>
<localidad>
<nombre>Monterrubio de la Serena</nombre>
<IdProvincia>8</IdProvincia>
<ID>520</ID>
<latitud>38.5892</latitud>
<longitud>-5.443485</longitud>
</localidad>
<localidad>
<nombre>Nogales</nombre>
<IdProvincia>8</IdProvincia>
<ID>521</ID>
<latitud>38.58658</latitud>
<longitud>-6.749022</longitud>
</localidad>
<localidad>
<nombre>Orellana la Vieja</nombre>
<IdProvincia>8</IdProvincia>
<ID>522</ID>
<latitud>39.00505</latitud>
<longitud>-5.534274</longitud>
</localidad>
<localidad>
<nombre>Peñalsordo</nombre>
<IdProvincia>8</IdProvincia>
<ID>523</ID>
<latitud>38.81918</latitud>
<longitud>-5.114106</longitud>
</localidad>
<localidad>
<nombre>Puebla de Alcocer</nombre>
<IdProvincia>8</IdProvincia>
<ID>524</ID>
<latitud>38.98521</latitud>
<longitud>-5.257938</longitud>
</localidad>
<localidad>
<nombre>Salvatierra de los Barros</nombre>
<IdProvincia>8</IdProvincia>
<ID>525</ID>
<latitud>38.49078</latitud>
<longitud>-6.685156</longitud>
</localidad>
<localidad>
<nombre>Santa Amalia</nombre>
<IdProvincia>8</IdProvincia>
<ID>526</ID>
<latitud>39.01209</latitud>
<longitud>-6.01155</longitud>
</localidad>
<localidad>
<nombre>Valdecaballeros</nombre>
<IdProvincia>8</IdProvincia>
<ID>527</ID>
<latitud>39.24578</latitud>
<longitud>-5.191957</longitud>
</localidad>
<localidad>
<nombre>Valle de la Serena</nombre>
<IdProvincia>8</IdProvincia>
<ID>528</ID>
<latitud>38.70062</latitud>
<longitud>-5.799649</longitud>
</localidad>
<localidad>
<nombre>Villafranca de los Barros</nombre>
<IdProvincia>8</IdProvincia>
<ID>529</ID>
<latitud>38.5623</latitud>
<longitud>-6.337831</longitud>
</localidad>
<localidad>
<nombre>Villanueva de la Serena</nombre>
<IdProvincia>8</IdProvincia>
<ID>530</ID>
<latitud>38.97399</latitud>
<longitud>-5.800302</longitud>
</localidad>
<localidad>
<nombre>Villar del Rey</nombre>
<IdProvincia>8</IdProvincia>
<ID>531</ID>
<latitud>39.13239</latitud>
<longitud>-6.847796</longitud>
</localidad>
<localidad>
<nombre>Zalamea de la Serena</nombre>
<IdProvincia>8</IdProvincia>
<ID>532</ID>
<latitud>38.64977</latitud>
<longitud>-5.656967</longitud>
</localidad>
<localidad>
<nombre>Abrera</nombre>
<IdProvincia>9</IdProvincia>
<ID>533</ID>
<latitud>41.51609</latitud>
<longitud>1.902142</longitud>
</localidad>
<localidad>
<nombre>Avinyonet del Penedès</nombre>
<IdProvincia>9</IdProvincia>
<ID>534</ID>
<latitud>41.3606</latitud>
<longitud>1.776485</longitud>
</localidad>
<localidad>
<nombre>Badalona</nombre>
<IdProvincia>9</IdProvincia>
<ID>535</ID>
<latitud>41.45014</latitud>
<longitud>2.24742</longitud>
</localidad>
<localidad>
<nombre>Begues</nombre>
<IdProvincia>9</IdProvincia>
<ID>536</ID>
<latitud>41.33101</latitud>
<longitud>1.921987</longitud>
</localidad>
<localidad>
<nombre>Berga</nombre>
<IdProvincia>9</IdProvincia>
<ID>537</ID>
<latitud>42.10144</latitud>
<longitud>1.8438</longitud>
</localidad>
<localidad>
<nombre>Calaf</nombre>
<IdProvincia>9</IdProvincia>
<ID>538</ID>
<latitud>41.73342</latitud>
<longitud>1.513498</longitud>
</localidad>
<localidad>
<nombre>Castellbisbal</nombre>
<IdProvincia>9</IdProvincia>
<ID>539</ID>
<latitud>41.47467</latitud>
<longitud>1.981407</longitud>
</localidad>
<localidad>
<nombre>Cerdanyola del Vallès</nombre>
<IdProvincia>9</IdProvincia>
<ID>540</ID>
<latitud>41.49137</latitud>
<longitud>2.140769</longitud>
</localidad>
<localidad>
<nombre>Collbató</nombre>
<IdProvincia>9</IdProvincia>
<ID>541</ID>
<latitud>41.56639</latitud>
<longitud>1.830136</longitud>
</localidad>
<localidad>
<nombre>Cornellà de Llobregat</nombre>
<IdProvincia>9</IdProvincia>
<ID>542</ID>
<latitud>41.35561</latitud>
<longitud>2.070432</longitud>
</localidad>
<localidad>
<nombre>Esparreguera</nombre>
<IdProvincia>9</IdProvincia>
<ID>543</ID>
<latitud>41.53889</latitud>
<longitud>1.870692</longitud>
</localidad>
<localidad>
<nombre>Font-rubí</nombre>
<IdProvincia>9</IdProvincia>
<ID>544</ID>
<latitud>41.43423</latitud>
<longitud>1.591408</longitud>
</localidad>
<localidad>
<nombre>Gelida</nombre>
<IdProvincia>9</IdProvincia>
<ID>545</ID>
<latitud>41.44048</latitud>
<longitud>1.862745</longitud>
</localidad>
<localidad>
<nombre>Granada, La</nombre>
<IdProvincia>9</IdProvincia>
<ID>546</ID>
<latitud>41.37685</latitud>
<longitud>1.719494</longitud>
</localidad>
<localidad>
<nombre>Gurb</nombre>
<IdProvincia>9</IdProvincia>
<ID>547</ID>
<latitud>41.95394</latitud>
<longitud>2.235545</longitud>
</localidad>
<localidad>
<nombre>Igualada</nombre>
<IdProvincia>9</IdProvincia>
<ID>548</ID>
<latitud>41.57877</latitud>
<longitud>1.617193</longitud>
</localidad>
<localidad>
<nombre>Manresa</nombre>
<IdProvincia>9</IdProvincia>
<ID>549</ID>
<latitud>41.72517</latitud>
<longitud>1.823353</longitud>
</localidad>
<localidad>
<nombre>Martorell</nombre>
<IdProvincia>9</IdProvincia>
<ID>550</ID>
<latitud>41.47355</latitud>
<longitud>1.927682</longitud>
</localidad>
<localidad>
<nombre>Mataró</nombre>
<IdProvincia>9</IdProvincia>
<ID>551</ID>
<latitud>41.5375</latitud>
<longitud>2.445278</longitud>
</localidad>
<localidad>
<nombre>Olesa de Bonesvalls</nombre>
<IdProvincia>9</IdProvincia>
<ID>552</ID>
<latitud>41.35301</latitud>
<longitud>1.849887</longitud>
</localidad>
<localidad>
<nombre>Prats de Lluçanès</nombre>
<IdProvincia>9</IdProvincia>
<ID>553</ID>
<latitud>42.00874</latitud>
<longitud>2.028578</longitud>
</localidad>
<localidad>
<nombre>Prats de Rei, Els</nombre>
<IdProvincia>9</IdProvincia>
<ID>554</ID>
<latitud>41.7055</latitud>
<longitud>1.541531</longitud>
</localidad>
<localidad>
<nombre>Roda de Ter</nombre>
<IdProvincia>9</IdProvincia>
<ID>555</ID>
<latitud>41.98597</latitud>
<longitud>2.311212</longitud>
</localidad>
<localidad>
<nombre>Sant Boi de Llobregat</nombre>
<IdProvincia>9</IdProvincia>
<ID>556</ID>
<latitud>41.34739</latitud>
<longitud>2.043103</longitud>
</localidad>
<localidad>
<nombre>Sant Joan Despí</nombre>
<IdProvincia>9</IdProvincia>
<ID>557</ID>
<latitud>41.36769</latitud>
<longitud>2.056065</longitud>
</localidad>
<localidad>
<nombre>Sant Just Desvern</nombre>
<IdProvincia>9</IdProvincia>
<ID>558</ID>
<latitud>41.38576</latitud>
<longitud>2.075544</longitud>
</localidad>
<localidad>
<nombre>Sant Pau d&apos;Ordal</nombre>
<IdProvincia>9</IdProvincia>
<ID>559</ID>
<latitud>41.3833824</latitud>
<longitud>1.79041</longitud>
</localidad>
<localidad>
<nombre>Sant Pere de Riudebitlles</nombre>
<IdProvincia>9</IdProvincia>
<ID>560</ID>
<latitud>41.45347</latitud>
<longitud>1.701628</longitud>
</localidad>
<localidad>
<nombre>Sitges</nombre>
<IdProvincia>9</IdProvincia>
<ID>561</ID>
<latitud>41.23478</latitud>
<longitud>1.811222</longitud>
</localidad>
<localidad>
<nombre>Terrassa</nombre>
<IdProvincia>9</IdProvincia>
<ID>562</ID>
<latitud>41.56095</latitud>
<longitud>2.01044</longitud>
</localidad>
<localidad>
<nombre>Torrelavit</nombre>
<IdProvincia>9</IdProvincia>
<ID>563</ID>
<latitud>41.44635</latitud>
<longitud>1.729874</longitud>
</localidad>
<localidad>
<nombre>Vilanova i la Geltrú</nombre>
<IdProvincia>9</IdProvincia>
<ID>564</ID>
<latitud>41.22415</latitud>
<longitud>1.725568</longitud>
</localidad>
<localidad>
<nombre>Alfoz de Bricia</nombre>
<IdProvincia>10</IdProvincia>
<ID>565</ID>
<latitud>42.89667</latitud>
<longitud>-3.879167</longitud>
</localidad>
<localidad>
<nombre>Altable</nombre>
<IdProvincia>10</IdProvincia>
<ID>566</ID>
<latitud>42.60335</latitud>
<longitud>-3.077159</longitud>
</localidad>
<localidad>
<nombre>Arenillas de Riopisuerga</nombre>
<IdProvincia>10</IdProvincia>
<ID>567</ID>
<latitud>42.35673</latitud>
<longitud>-4.233235</longitud>
</localidad>
<localidad>
<nombre>Berlangas de Roa</nombre>
<IdProvincia>10</IdProvincia>
<ID>568</ID>
<latitud>41.6894</latitud>
<longitud>-3.87417</longitud>
</localidad>
<localidad>
<nombre>Briviesca</nombre>
<IdProvincia>10</IdProvincia>
<ID>569</ID>
<latitud>42.55029</latitud>
<longitud>-3.323369</longitud>
</localidad>
<localidad>
<nombre>Burgos</nombre>
<IdProvincia>10</IdProvincia>
<ID>570</ID>
<latitud>42.34087</latitud>
<longitud>-3.699731</longitud>
</localidad>
<localidad>
<nombre>Cabezón de la Sierra</nombre>
<IdProvincia>10</IdProvincia>
<ID>571</ID>
<latitud>41.93455</latitud>
<longitud>-3.242159</longitud>
</localidad>
<localidad>
<nombre>Carcedo de Bureba</nombre>
<IdProvincia>10</IdProvincia>
<ID>572</ID>
<latitud>42.5783</latitud>
<longitud>-3.498399</longitud>
</localidad>
<localidad>
<nombre>Castrillo del Val</nombre>
<IdProvincia>10</IdProvincia>
<ID>573</ID>
<latitud>42.31421</latitud>
<longitud>-3.584872</longitud>
</localidad>
<localidad>
<nombre>Castrojeriz</nombre>
<IdProvincia>10</IdProvincia>
<ID>574</ID>
<latitud>42.28828</latitud>
<longitud>-4.138836</longitud>
</localidad>
<localidad>
<nombre>Covarrubias</nombre>
<IdProvincia>10</IdProvincia>
<ID>575</ID>
<latitud>42.05919</latitud>
<longitud>-3.520237</longitud>
</localidad>
<localidad>
<nombre>Espinosa de Cervera</nombre>
<IdProvincia>10</IdProvincia>
<ID>576</ID>
<latitud>41.89632</latitud>
<longitud>-3.468393</longitud>
</localidad>
<localidad>
<nombre>Gumiel de Izán</nombre>
<IdProvincia>10</IdProvincia>
<ID>577</ID>
<latitud>41.7734</latitud>
<longitud>-3.688242</longitud>
</localidad>
<localidad>
<nombre>Horra, La</nombre>
<IdProvincia>10</IdProvincia>
<ID>578</ID>
<latitud>41.74088</latitud>
<longitud>-3.875266</longitud>
</localidad>
<localidad>
<nombre>Mambrillas de Lara</nombre>
<IdProvincia>10</IdProvincia>
<ID>579</ID>
<latitud>42.09437</latitud>
<longitud>-3.461727</longitud>
</localidad>
<localidad>
<nombre>Merindad de Cuesta-Urria</nombre>
<IdProvincia>10</IdProvincia>
<ID>580</ID>
<latitud>42.9</latitud>
<longitud>-3.391667</longitud>
</localidad>
<localidad>
<nombre>Merindad de Sotoscueva</nombre>
<IdProvincia>10</IdProvincia>
<ID>581</ID>
<latitud>43.05877</latitud>
<longitud>-3.642048</longitud>
</localidad>
<localidad>
<nombre>Milagros</nombre>
<IdProvincia>10</IdProvincia>
<ID>582</ID>
<latitud>41.57555</latitud>
<longitud>-3.699167</longitud>
</localidad>
<localidad>
<nombre>Olmedillo de Roa</nombre>
<IdProvincia>10</IdProvincia>
<ID>583</ID>
<latitud>41.78319</latitud>
<longitud>-3.934045</longitud>
</localidad>
<localidad>
<nombre>Rabanera del Pinar</nombre>
<IdProvincia>10</IdProvincia>
<ID>584</ID>
<latitud>41.89267</latitud>
<longitud>-3.19425</longitud>
</localidad>
<localidad>
<nombre>Sargentes de la Lora</nombre>
<IdProvincia>10</IdProvincia>
<ID>585</ID>
<latitud>42.76923</latitud>
<longitud>-3.872826</longitud>
</localidad>
<localidad>
<nombre>Tubilla del Agua</nombre>
<IdProvincia>10</IdProvincia>
<ID>586</ID>
<latitud>42.70913</latitud>
<longitud>-3.803644</longitud>
</localidad>
<localidad>
<nombre>Valle de Mena</nombre>
<IdProvincia>10</IdProvincia>
<ID>587</ID>
<latitud>43.1</latitud>
<longitud>-3.283333</longitud>
</localidad>
<localidad>
<nombre>Villadiego</nombre>
<IdProvincia>10</IdProvincia>
<ID>588</ID>
<latitud>42.51575</latitud>
<longitud>-4.010096</longitud>
</localidad>
<localidad>
<nombre>Villarcayo de Merindad de Castilla la Vieja</nombre>
<IdProvincia>10</IdProvincia>
<ID>589</ID>
<latitud>42.9383</latitud>
<longitud>-3.572985</longitud>
</localidad>
<localidad>
<nombre>Villasana de Mena</nombre>
<IdProvincia>10</IdProvincia>
<ID>590</ID>
<latitud>43.1001978</latitud>
<longitud>-3.291833</longitud>
</localidad>
<localidad>
<nombre>Cabañas del Castillo</nombre>
<IdProvincia>11</IdProvincia>
<ID>591</ID>
<latitud>39.54757</latitud>
<longitud>-5.511646</longitud>
</localidad>
<localidad>
<nombre>Cáceres</nombre>
<IdProvincia>11</IdProvincia>
<ID>592</ID>
<latitud>39.47618</latitud>
<longitud>-6.37076</longitud>
</localidad>
<localidad>
<nombre>Cuacos de Yuste</nombre>
<IdProvincia>11</IdProvincia>
<ID>593</ID>
<latitud>40.10612</latitud>
<longitud>-5.722965</longitud>
</localidad>
<localidad>
<nombre>Escurial</nombre>
<IdProvincia>11</IdProvincia>
<ID>594</ID>
<latitud>39.16914</latitud>
<longitud>-5.885627</longitud>
</localidad>
<localidad>
<nombre>Logrosán</nombre>
<IdProvincia>11</IdProvincia>
<ID>595</ID>
<latitud>39.33704</latitud>
<longitud>-5.486933</longitud>
</localidad>
<localidad>
<nombre>Navas del Madroño</nombre>
<IdProvincia>11</IdProvincia>
<ID>596</ID>
<latitud>39.62302</latitud>
<longitud>-6.651073</longitud>
</localidad>
<localidad>
<nombre>Plasencia</nombre>
<IdProvincia>11</IdProvincia>
<ID>597</ID>
<latitud>40.0305</latitud>
<longitud>-6.088251</longitud>
</localidad>
<localidad>
<nombre>Pozuelo de Zarzón</nombre>
<IdProvincia>11</IdProvincia>
<ID>598</ID>
<latitud>40.14914</latitud>
<longitud>-6.415245</longitud>
</localidad>
<localidad>
<nombre>Robledollano</nombre>
<IdProvincia>11</IdProvincia>
<ID>599</ID>
<latitud>39.61113</latitud>
<longitud>-5.510137</longitud>
</localidad>
<localidad>
<nombre>Trujillo</nombre>
<IdProvincia>11</IdProvincia>
<ID>600</ID>
<latitud>39.45842</latitud>
<longitud>-5.881428</longitud>
</localidad>
<localidad>
<nombre>Valdelacasa de Tajo</nombre>
<IdProvincia>11</IdProvincia>
<ID>601</ID>
<latitud>39.72631</latitud>
<longitud>-5.281958</longitud>
</localidad>
<localidad>
<nombre>Valverde de la Vera</nombre>
<IdProvincia>11</IdProvincia>
<ID>602</ID>
<latitud>40.1233</latitud>
<longitud>-5.494221</longitud>
</localidad>
<localidad>
<nombre>Villar del Pedroso</nombre>
<IdProvincia>11</IdProvincia>
<ID>603</ID>
<latitud>39.70632</latitud>
<longitud>-5.196259</longitud>
</localidad>
<localidad>
<nombre>Zorita</nombre>
<IdProvincia>11</IdProvincia>
<ID>604</ID>
<latitud>39.28505</latitud>
<longitud>-5.700322</longitud>
</localidad>
<localidad>
<nombre>Alcalá del Valle</nombre>
<IdProvincia>12</IdProvincia>
<ID>605</ID>
<latitud>36.90491</latitud>
<longitud>-5.173237</longitud>
</localidad>
<localidad>
<nombre>Algar</nombre>
<IdProvincia>12</IdProvincia>
<ID>606</ID>
<latitud>36.65533</latitud>
<longitud>-5.657418</longitud>
</localidad>
<localidad>
<nombre>Algeciras</nombre>
<IdProvincia>12</IdProvincia>
<ID>607</ID>
<latitud>36.12978</latitud>
<longitud>-5.447698</longitud>
</localidad>
<localidad>
<nombre>Algodonales</nombre>
<IdProvincia>12</IdProvincia>
<ID>608</ID>
<latitud>36.88092</latitud>
<longitud>-5.405773</longitud>
</localidad>
<localidad>
<nombre>Barrios, Los</nombre>
<IdProvincia>12</IdProvincia>
<ID>609</ID>
<latitud>36.18539</latitud>
<longitud>-5.492747</longitud>
</localidad>
<localidad>
<nombre>Bornos</nombre>
<IdProvincia>12</IdProvincia>
<ID>610</ID>
<latitud>36.81459</latitud>
<longitud>-5.743362</longitud>
</localidad>
<localidad>
<nombre>Chiclana de la Frontera</nombre>
<IdProvincia>12</IdProvincia>
<ID>611</ID>
<latitud>36.41915</latitud>
<longitud>-6.149412</longitud>
</localidad>
<localidad>
<nombre>Chipiona</nombre>
<IdProvincia>12</IdProvincia>
<ID>612</ID>
<latitud>36.7408</latitud>
<longitud>-6.43587</longitud>
</localidad>
<localidad>
<nombre>Espera</nombre>
<IdProvincia>12</IdProvincia>
<ID>613</ID>
<latitud>36.87319</latitud>
<longitud>-5.806213</longitud>
</localidad>
<localidad>
<nombre>Línea de la Concepción, La</nombre>
<IdProvincia>12</IdProvincia>
<ID>614</ID>
<latitud>36.16118</latitud>
<longitud>-5.348256</longitud>
</localidad>
<localidad>
<nombre>Medina-Sidonia</nombre>
<IdProvincia>12</IdProvincia>
<ID>615</ID>
<latitud>36.46768</latitud>
<longitud>-5.927894</longitud>
</localidad>
<localidad>
<nombre>Paterna de Rivera</nombre>
<IdProvincia>12</IdProvincia>
<ID>616</ID>
<latitud>36.52333</latitud>
<longitud>-5.866053</longitud>
</localidad>
<localidad>
<nombre>Puerto de Santa María, El</nombre>
<IdProvincia>12</IdProvincia>
<ID>617</ID>
<latitud>36.59695</latitud>
<longitud>-6.227526</longitud>
</localidad>
<localidad>
<nombre>Puerto Real</nombre>
<IdProvincia>12</IdProvincia>
<ID>618</ID>
<latitud>36.52912</latitud>
<longitud>-6.191895</longitud>
</localidad>
<localidad>
<nombre>Puerto Serrano</nombre>
<IdProvincia>12</IdProvincia>
<ID>619</ID>
<latitud>36.92159</latitud>
<longitud>-5.545621</longitud>
</localidad>
<localidad>
<nombre>Rota</nombre>
<IdProvincia>12</IdProvincia>
<ID>620</ID>
<latitud>36.61699</latitud>
<longitud>-6.358202</longitud>
</localidad>
<localidad>
<nombre>San Fernando</nombre>
<IdProvincia>12</IdProvincia>
<ID>621</ID>
<latitud>36.46572</latitud>
<longitud>-6.196626</longitud>
</localidad>
<localidad>
<nombre>Sanlúcar de Barrameda</nombre>
<IdProvincia>12</IdProvincia>
<ID>622</ID>
<latitud>36.77882</latitud>
<longitud>-6.354198</longitud>
</localidad>
<localidad>
<nombre>Villaluenga del Rosario</nombre>
<IdProvincia>12</IdProvincia>
<ID>623</ID>
<latitud>36.69587</latitud>
<longitud>-5.388137</longitud>
</localidad>
<localidad>
<nombre>Medio Cudeyo</nombre>
<IdProvincia>13</IdProvincia>
<ID>624</ID>
<latitud>43.38139</latitud>
<longitud>-3.731667</longitud>
</localidad>
<localidad>
<nombre>Reocín</nombre>
<IdProvincia>13</IdProvincia>
<ID>625</ID>
<latitud>43.34273</latitud>
<longitud>-4.095572</longitud>
</localidad>
<localidad>
<nombre>Torrelavega</nombre>
<IdProvincia>13</IdProvincia>
<ID>626</ID>
<latitud>43.35146</latitud>
<longitud>-4.047017</longitud>
</localidad>
<localidad>
<nombre>Alcalà de Xivert</nombre>
<IdProvincia>14</IdProvincia>
<ID>627</ID>
<latitud>40.30459</latitud>
<longitud>0.2263053</longitud>
</localidad>
<localidad>
<nombre>Alcora, l</nombre>
<IdProvincia>14</IdProvincia>
<ID>628</ID>
<latitud>40.07278</latitud>
<longitud>-0.2130235</longitud>
</localidad>
<localidad>
<nombre>Benicarló</nombre>
<IdProvincia>14</IdProvincia>
<ID>629</ID>
<latitud>40.4187</latitud>
<longitud>0.4231017</longitud>
</localidad>
<localidad>
<nombre>Benicasim/Benicàssim</nombre>
<IdProvincia>14</IdProvincia>
<ID>630</ID>
<latitud>40.05554</latitud>
<longitud>0.0656074</longitud>
</localidad>
<localidad>
<nombre>Betxí</nombre>
<IdProvincia>14</IdProvincia>
<ID>631</ID>
<latitud>39.92623</latitud>
<longitud>-0.198169</longitud>
</localidad>
<localidad>
<nombre>Burriana</nombre>
<IdProvincia>14</IdProvincia>
<ID>632</ID>
<latitud>39.88987</latitud>
<longitud>-0.0836936</longitud>
</localidad>
<localidad>
<nombre>Cervera del Maestre</nombre>
<IdProvincia>14</IdProvincia>
<ID>633</ID>
<latitud>40.45456</latitud>
<longitud>0.2796835</longitud>
</localidad>
<localidad>
<nombre>Cinctorres</nombre>
<IdProvincia>14</IdProvincia>
<ID>634</ID>
<latitud>40.58369</latitud>
<longitud>-0.2165387</longitud>
</localidad>
<localidad>
<nombre>Jérica</nombre>
<IdProvincia>14</IdProvincia>
<ID>635</ID>
<latitud>39.9134</latitud>
<longitud>-0.5725689</longitud>
</localidad>
<localidad>
<nombre>Moncofa</nombre>
<IdProvincia>14</IdProvincia>
<ID>636</ID>
<latitud>39.80862</latitud>
<longitud>-0.145778</longitud>
</localidad>
<localidad>
<nombre>Morella</nombre>
<IdProvincia>14</IdProvincia>
<ID>637</ID>
<latitud>40.619</latitud>
<longitud>-0.0977334</longitud>
</localidad>
<localidad>
<nombre>Onda</nombre>
<IdProvincia>14</IdProvincia>
<ID>638</ID>
<latitud>39.9653</latitud>
<longitud>-0.2626455</longitud>
</localidad>
<localidad>
<nombre>Segorbe</nombre>
<IdProvincia>14</IdProvincia>
<ID>639</ID>
<latitud>39.85328</latitud>
<longitud>-0.4849939</longitud>
</localidad>
<localidad>
<nombre>Sueras/Suera</nombre>
<IdProvincia>14</IdProvincia>
<ID>640</ID>
<latitud>39.95241</latitud>
<longitud>-0.3298838</longitud>
</localidad>
<localidad>
<nombre>Toro, El</nombre>
<IdProvincia>14</IdProvincia>
<ID>641</ID>
<latitud>39.9672</latitud>
<longitud>-0.0537832</longitud>
</localidad>
<localidad>
<nombre>Torre d&apos;En Besora, la</nombre>
<IdProvincia>14</IdProvincia>
<ID>642</ID>
<latitud>39.98182</latitud>
<longitud>-0.0721205</longitud>
</localidad>
<localidad>
